stop_id,stop_code,stop_name,stop_lat,stop_lon,location_type,parent_station,wheelchair_boarding 
55154,,Biste,43.6557721576119,4.0000557114274,1,,1
899,29104,Biste,43.6557721576119,4.0000557114274,0,55154,1
922,29209,Biste,43.6558247439801,4.00014392067802,0,55154,1
55155,,Collège Le Bérange,43.6673413297462,4.0233917496602,1,,1
906,29111,Collège Le Bérange,43.6673413297462,4.0233917496602,0,55155,1
914,29201,Collège Le Bérange,43.6673317650399,4.02342862183461,0,55155,1
55156,,Fenouillet,43.6635904255646,4.02178240531404,1,,1
905,29110,Fenouillet,43.6635904255646,4.02178240531404,0,55156,1
915,29202,Fenouillet,43.6646747452601,4.02143050793526,0,55156,1
55157,,François Perroux,43.6536354310951,4.00103352330552,1,,1
907,29112,François Perroux,43.6536354310951,4.00103352330552,0,55157,1
924,29213,François Perroux,43.6536354310951,4.00103352330552,0,55157,1
55158,,Gaston Baissette,43.664580696569,4.01706843958037,1,,1
916,29203,Gaston Baissette,43.664580696569,4.01706843958037,0,55158,1
55159,,Golf,43.6520219610824,4.00481238250628,1,,1
908,29120,Golf,43.6520219610824,4.00481238250628,0,55159,1
55160,,Le Grès,43.6625011360157,4.0091186760332,1,,1
902,29107,Le Grès,43.6625011360157,4.0091186760332,0,55160,1
919,29206,Le Grès,43.662522738433,4.01004809954575,0,55160,1
55161,,Le Levant,43.6617039022968,4.01764007130183,1,,1
904,29109,Le Levant,43.6617039022968,4.01764007130183,0,55161,1
55162,,Mairie,43.6611525526901,4.01319050481901,1,,1
903,29108,Mairie,43.6611525526901,4.01319050481901,0,55162,1
918,29205,Mairie,43.6617703240323,4.01277522254134,0,55162,1
55163,,Paradis,43.664095417784,4.01415623946003,1,,1
917,29204,Paradis,43.664095417784,4.01415623946003,0,55163,1
55164,,Paul Cézanne,43.659736395634,4.006511472525,1,,1
901,29106,Paul Cézanne,43.659736395634,4.006511472525,0,55164,1
920,29207,Paul Cézanne,43.6601363860912,4.00680799260802,0,55164,1
55165,,Treille,43.6572436316497,4.00316950573506,1,,1
900,29105,Treille,43.6572436316497,4.00316950573506,0,55165,1
921,29208,Treille,43.6576677310484,4.00365243525348,0,55165,1
55166,,Le Créant,43.727578524662,4.02857115833082,1,,1
939,31106,Le Créant,43.727578524662,4.02857115833082,0,55166,1
945,31206,Le Créant,43.7275303031763,4.02878049421611,0,55166,1
55167,,Le Ginestet,43.7218210979123,4.00675551925956,1,,1
1304,27123,Le Ginestet,43.7218210979123,4.00675551925956,0,55167,1
1312,27223,Le Ginestet,43.7219828578223,4.00676025773172,0,55167,1
55168,,Le Puits,43.7259935868513,4.02238725079927,1,,1
1307,27216,Le Puits,43.7259935868513,4.02238725079927,0,55168,1
1350,27125,Le Puits,43.7259935868513,4.02238725079927,0,55168,1
55169,,Mairie,43.729019595188,4.02090214130949,1,,1
1012,35109,Mairie,43.729019595188,4.02090214130949,0,55169,1
1306,27215,Mairie,43.7289364045644,4.0210484635396,0,55169,1
55170,,Aube Rouge,43.6393914722445,3.92405602878819,1,,1
1030,35221,Aube Rouge,43.6393914722445,3.92405602878819,0,55170,1
1216,42163,Aube Rouge,43.6385424965602,3.92493604745572,0,55170,1
1222,42207,Aube Rouge,43.6385340549184,3.92489867744832,0,55170,1
1360,35114,Aube Rouge,43.6393914722445,3.92405602878819,0,55170,1
55171,,Balestrier,43.6442698119465,3.90329490872889,1,,1
144,4169,Balestrier,43.6442698119465,3.90329490872889,0,55171,1
146,4202,Balestrier,43.644216609946,3.90324393055571,0,55171,1
55172,,Buissonnets,43.6455104220422,3.90701814686909,1,,1
143,4168,Buissonnets,43.6455104220422,3.90701814686909,0,55172,1
147,4203,Buissonnets,43.6454915517247,3.90707952701449,0,55172,1
55173,,Castelnau Zone d'Activités,43.6365033072149,3.92728064593749,1,,1
594,20116,Castelnau Zone d'Activités,43.6365033072149,3.92728064593749,0,55173,1
626,20219,Castelnau Zone d'Activités,43.6366542556443,3.92740863105548,0,55173,1
55174,,Castors,43.6328261053058,3.90388446318563,1,,1
129,4127,Castors,43.6328261053058,3.90388446318563,0,55174,1
1026,35214,Castors,43.6328473023183,3.90366225732107,0,55174,1
55175,,Caylus,43.6458580689656,3.89852271153872,1,,1
1058,36141,Caylus,43.6458580689656,3.89852271153872,0,55175,1
1095,36241,Caylus,43.6467396878976,3.89910393590637,0,55175,1
55176,,Centurions,43.6327979757423,3.91571619886334,1,,1
1214,42157,Centurions,43.6327979757423,3.91571619886334,0,55176,1
1224,42213,Centurions,43.6328251150762,3.91570457225184,0,55176,1
55177,,Charles de Gaulle,43.6282378500196,3.89665466970072,1,,1
419,10150,Charles de Gaulle,43.6282378500196,3.89665466970072,0,55177,1
454,10246,Charles de Gaulle,43.6280773449885,3.89656365279691,0,55177,1
1013,35110,Charles de Gaulle,43.6283298095038,3.89775865403373,0,55177,1
1024,35210,Charles de Gaulle,43.6283939626101,3.89767377505847,0,55177,1
1211,42151,Charles de Gaulle,43.6285551805181,3.89771531053076,0,55177,1
1227,42219,Charles de Gaulle,43.6285736884137,3.89767868803626,0,55177,1
1364,36143,Charles de Gaulle,43.6283939626101,3.89767377505847,0,55177,1
55178,,Chemin de la Monnaie,43.6435700885897,3.9106290870478,1,,1
142,4167,Chemin de la Monnaie,43.6435700885897,3.9106290870478,0,55178,1
148,4204,Chemin de la Monnaie,43.6435981271675,3.91055558340119,0,55178,1
55179,,Chênes,43.6390510445649,3.90919239078827,1,,1
138,4163,Chênes,43.6390510445649,3.90919239078827,0,55179,1
152,4208,Chênes,43.6390269614346,3.90899367229946,0,55179,1
55180,,Cimetière,43.6319913382807,3.89757408834865,1,,1
155,4218,Cimetière,43.6319913382807,3.89757408834865,0,55180,1
55181,,Clairval,43.6301926964308,3.90259928952745,1,,1
1212,42153,Clairval,43.6301926964308,3.90259928952745,0,55181,1
1226,42217,Clairval,43.6302198343012,3.90258765721135,0,55181,1
55182,,Clinique du Parc,43.6342063024452,3.89108701653735,1,,1
1015,35113,Clinique du Parc,43.6342063024452,3.89108701653735,0,55182,1
55183,,Closerie des Guilhems,43.6343634402019,3.89516345473925,1,,1
675,22102,Closerie des Guilhems,43.6343634402019,3.89516345473925,0,55183,1
717,22219,Closerie des Guilhems,43.6360043938932,3.89420564762028,0,55183,1
55184,,Collège Frédéric Bazille,43.6343880157283,3.90652659408445,1,,1
1014,35112,Collège Frédéric Bazille,43.6343880157283,3.90652659408445,0,55184,1
1025,35212,Collège Frédéric Bazille,43.6344591884076,3.90657806069171,0,55184,1
55185,,Décurions,43.6355832220519,3.90903499501526,1,,1
1018,35117,Décurions,43.6355832220519,3.90903499501526,0,55185,1
1029,35217,Décurions,43.6356640988696,3.90903722222586,0,55185,1
55186,,Georges Pompidou,43.6492711127252,3.92101273052626,1,,1
1218,42167,Georges Pompidou,43.6492711127252,3.92101273052626,0,55186,1
1220,42203,Georges Pompidou,43.6492626696601,3.92097535407436,0,55186,1
55187,,Idate,43.6517114975363,3.89720951153028,1,,1
699,22163,Idate,43.6517114975363,3.89720951153028,0,55187,1
725,22264,Idate,43.651527130076,3.89752638042768,0,55187,1
55188,,Jean Jaurès,43.6399518997348,3.89414003684897,1,,1
676,22103,Jean Jaurès,43.6399518997348,3.89414003684897,0,55188,1
716,22218,Jean Jaurès,43.6400259270443,3.89399351284387,0,55188,1
55189,,La Galine,43.6314568933244,3.90903276236359,1,,1
1213,42155,La Galine,43.6314568933244,3.90903276236359,0,55189,1
1225,42215,La Galine,43.6314840319125,3.9090211328481,0,55189,1
55190,,La Pompignane (Les Lacs),43.6258135713135,3.90080850908734,1,,1
318,8121,La Pompignane (Les Lacs),43.6258135713135,3.90080850908734,0,55190,1
324,8203,La Pompignane (Les Lacs),43.6246723942036,3.89952734713997,0,55190,1
418,10149,La Pompignane (Les Lacs),43.625129494548,3.90024525472351,0,55190,1
55191,,Les Aires,43.6424986996744,3.89956969227814,1,,1
145,4201,Les Aires,43.6424986996744,3.89956969227814,0,55191,1
1361,35121,Les Aires,43.6424986996744,3.89956969227814,0,55191,1
55192,,Mairie de Castelnau,43.6330091116361,3.89744100806514,1,,1
128,4125,Mairie de Castelnau,43.6330091116361,3.89744100806514,0,55192,1
55193,,Marcel Dassault,43.6221463075842,3.91685716882733,1,,1
1106,37101,Marcel Dassault,43.6221463075842,3.91685716882733,0,55193,1
1107,37202,Marcel Dassault,43.6221186264535,3.91690590214554,0,55193,1
55194,,Mas de Rochet,43.6258568047784,3.90651483383368,1,,1
320,8123,Mas de Rochet,43.6258568047784,3.90651483383368,0,55194,1
1333,8124,Mas de Rochet,43.6258638020908,3.90603237833896,0,55194,1
55195,,Mûriers,43.6406734119201,3.91137861031573,1,,1
139,4164,Mûriers,43.6406734119201,3.91137861031573,0,55195,1
151,4207,Mûriers,43.64063332609,3.91166221718574,0,55195,1
55196,,Notre-Dame de Sablassou,43.6347440125371,3.9234193442594,1,,1
668,21217,Notre-Dame de Sablassou,43.6347440125371,3.9234193442594,0,55196,1
669,21218,Notre-Dame de Sablassou,43.633957365597,3.92188744182756,0,55196,1
1215,42159,Notre-Dame de Sablassou,43.6342394895382,3.9222665979465,0,55196,1
1223,42211,Notre-Dame de Sablassou,43.6342668108514,3.92224260173059,0,55196,1
55197,,Palais des Sports,43.6451616185958,3.91739519500982,1,,1
1017,35116,Palais des Sports,43.6451616185958,3.91739519500982,0,55197,1
1028,35216,Palais des Sports,43.6451643288231,3.91720957297141,0,55197,1
55198,,Pioch Pelat,43.6261711395677,3.9021919985687,1,,1
319,8122,Pioch Pelat,43.6261711395677,3.9021919985687,0,55198,1
323,8202,Pioch Pelat,43.6262280991301,3.9019831739828,0,55198,1
55199,,Place de la Liberté,43.6331591707961,3.89576181914461,1,,1
674,22101,Place de la Liberté,43.6331591707961,3.89576181914461,0,55199,1
718,22220,Place de la Liberté,43.6332154054653,3.89560245170636,0,55199,1
55200,,Place de la Monnaie,43.6441500733198,3.91031082909727,1,,1
141,4166,Place de la Monnaie,43.6441500733198,3.91031082909727,0,55200,1
149,4205,Place de la Monnaie,43.6442859481212,3.91024029688153,0,55200,1
55201,,Place du Forum,43.6446425690615,3.92399158449931,1,,1
131,4136,Place du Forum,43.6446425690615,3.92399158449931,0,55201,1
168,4263,Place du Forum,43.6445257466447,3.92398833630581,0,55201,1
55202,,Roger Salengro,43.6327652724875,3.89627090008932,1,,1
127,4124,Roger Salengro,43.6327652724875,3.89627090008932,0,55202,1
55203,,Rose de France,43.6322866035459,3.90140663937507,1,,1
1016,35115,Rose de France,43.6322866035459,3.90140663937507,0,55203,1
1027,35215,Rose de France,43.6323743201682,3.90155756686936,0,55203,1
55204,,Saint-Exupéry,43.6415434572066,3.92321219328369,1,,1
130,4135,Saint-Exupéry,43.6415434572066,3.92321219328369,0,55204,1
169,4264,Saint-Exupéry,43.6415804906079,3.92313894814253,0,55204,1
55205,,Sapins,43.6370134771289,3.91021315998486,1,,1
136,4161,Sapins,43.6370134771289,3.91021315998486,0,55205,1
154,4210,Sapins,43.6369133684904,3.91029704699509,0,55205,1
55206,,Sycomores,43.6418619609436,3.91063151180266,1,,1
140,4165,Sycomores,43.6418619609436,3.91063151180266,0,55206,1
150,4206,Sycomores,43.6418538741672,3.91056939352553,0,55206,1
55207,,Thym,43.6379609688986,3.9062534877453,1,,1
137,4162,Thym,43.6379609688986,3.9062534877453,0,55207,1
153,4209,Thym,43.6377643460114,3.90617381348466,0,55207,1
55208,,Via Domitia,43.6465326691418,3.92996184330354,1,,1
1217,42165,Via Domitia,43.6465326691418,3.92996184330354,0,55208,1
1221,42205,Via Domitia,43.6465335797711,3.929899968006,0,55208,1
55209,,Aqueduc,43.6787763140789,3.9860845476151,1,,1
1008,35104,Aqueduc,43.6787763140789,3.9860845476151,0,55209,1
1019,35202,Aqueduc,43.6791372143337,3.98659047719699,0,55209,1
55210,,Castries Centre,43.6746838205825,3.9832536160787,1,,1
1007,35103,Centre,43.6746838205825,3.9832536160787,0,55210,1
1020,35203,Centre,43.6748021959055,3.98256339097524,0,55210,1
55211,,Collège Les Pins,43.6841900674496,3.99070093321753,1,,1
1009,35106,Collège Les Pins,43.6841900674496,3.99070093321753,0,55211,1
1023,35209,Collège Les Pins,43.684287027536,3.9908276297434,0,55211,1
55212,,Cap Alpha,43.6596205968771,3.90047195260628,1,,1
683,22113,Cap Alpha,43.6596205968771,3.90047195260628,0,55212,1
711,22209,Cap Alpha,43.65983430634,3.90061402039391,0,55212,1
55213,,Château,43.6554749160466,3.89119571104115,1,,1
679,22108,Château,43.6554749160466,3.89119571104115,0,55213,1
1062,36154,Château,43.6553496569895,3.89240572927259,0,55213,1
1099,36254,Château,43.6552358557029,3.89219213502475,0,55213,1
1332,36142,Château,43.6553210795376,3.89126581291893,0,55213,1
55214,,Cimetière,43.6579911526276,3.89251487634728,1,,1
681,22110,Cimetière,43.6579911526276,3.89251487634728,0,55214,1
55215,,Église,43.6576165770198,3.88917379385947,1,,1
680,22109,Église,43.6576165770198,3.88917379385947,0,55215,1
55216,,La Croisée,43.6601384274227,3.89698175311954,1,,1
722,22238,La Croisée,43.6601384274227,3.89698175311954,0,55216,1
55217,,Leenhardt,43.6568035493371,3.88505315957712,1,,1
714,22213,Leenhardt,43.6568035493371,3.88505315957712,0,55217,1
55218,,Médiathèque Albert Camus,43.6555449063627,3.88127966727777,1,,1
720,22227,Médiathèque Albert Camus,43.6555449063627,3.88127966727777,0,55218,1
55219,,Moulières,43.6596783950155,3.89334099151526,1,,1
682,22111,Moulières,43.6596783950155,3.89334099151526,0,55219,1
712,22211,Moulières,43.6596898726079,3.89316794422114,0,55219,1
55220,,Olivette,43.6585929120048,3.88942323822112,1,,1
713,22212,Olivette,43.6585929120048,3.88942323822112,0,55220,1
55221,,Pigeonniers,43.6535381616301,3.88393691616955,1,,1
677,22106,Pigeonniers,43.6535381616301,3.88393691616955,0,55221,1
715,22215,Pigeonniers,43.6537227454333,3.88171323989899,0,55221,1
55222,,Stade,43.6534986333116,3.88921037094662,1,,1
678,22107,Stade,43.6534986333116,3.88921037094662,0,55222,1
55223,,Hauts des Clavoux,43.5450120486861,3.70066412319656,1,,1
1054,36135,Hauts des Clavoux,43.5450120486861,3.70066412319656,0,55223,1
1068,36202,Hauts des Clavoux,43.5449575083002,3.70071225225095,0,55223,1
55224,,La Vierge,43.546415412798,3.70271191468994,1,,1
1053,36134,La Vierge,43.546415412798,3.70271191468994,0,55224,1
1069,36203,La Vierge,43.5463345375864,3.70270998281787,0,55224,1
55225,,Les Clavoux,43.543412362814,3.70063832772007,1,,1
1067,36201,Les Clavoux,43.543412362814,3.70063832772007,0,55225,1
1362,36136,Les Clavoux,43.543412362814,3.70063832772007,0,55225,1
55226,,Mairie,43.5500419167379,3.70807566133269,1,,1
1051,36132,Mairie,43.5500419167379,3.70807566133269,0,55226,1
1071,36205,Mairie,43.5501298971527,3.70822607462144,0,55226,1
55228,,Tambourin,43.5489358360518,3.70456408194354,1,,1
1052,36133,Tambourin,43.5489358360518,3.70456408194354,0,55228,1
1070,36204,Tambourin,43.5489970191935,3.70470148737255,0,55228,1
55229,,Tournesol,43.5533843907895,3.70960186624772,1,,1
1050,36131,Tournesol,43.5533843907895,3.70960186624772,0,55229,1
1072,36206,Tournesol,43.5534080535972,3.70986198015807,0,55229,1
55230,,Beaulieu,43.5605283810715,3.72665838618745,1,,1
1044,36124,Beaulieu,43.5605283810715,3.72665838618745,0,55230,1
1078,36213,Beaulieu,43.5605984500155,3.72750063255586,0,55230,1
55231,,Chanterelles,43.5601277083294,3.70805800842226,1,,1
1057,36140,Chanterelles,43.5601277083294,3.70805800842226,0,55231,1
1094,36240,Chanterelles,43.5601277083294,3.70805800842226,0,55231,1
55232,,Jean Jaurès,43.5583773544763,3.71210731688357,1,,1
1048,36129,Jean Jaurès,43.5583773544763,3.71210731688357,0,55232,1
1074,36209,Jean Jaurès,43.5583773544763,3.71210731688357,0,55232,1
55233,,Jean Moulin,43.5552244595788,3.71193259622444,1,,1
1049,36130,Jean Moulin,43.5552244595788,3.71193259622444,0,55233,1
1075,36210,Jean Moulin,43.5552244595788,3.71193259622444,0,55233,1
55234,,Les Grenaches,43.5531810203811,3.71850802737125,1,,1
1046,36126,Les Grenaches,43.5531810203811,3.71850802737125,0,55234,1
1076,36211,Les Grenaches,43.5530523867546,3.71802290732636,0,55234,1
55236,,Stade,43.5559327018239,3.72193642009621,1,,1
1045,36125,Stade,43.5559327018239,3.72193642009621,0,55236,1
1077,36212,Stade,43.555993071444,3.72213564132496,0,55236,1
55237,,Temple,43.5574499532228,3.71646052107232,1,,1
1047,36127,Temple,43.5574499532228,3.71646052107232,0,55237,1
1073,36207,Temple,43.5574499532228,3.71646052107232,0,55237,1
55238,,Arbousiers,43.6546518799841,3.94447722739425,1,,1
602,20125,Arbousiers,43.6546518799841,3.94447722739425,0,55238,1
616,20209,Arbousiers,43.6537664380031,3.94477421203757,0,55238,1
55239,,Arènes,43.6428293221212,3.93662999335443,1,,1
596,20118,Arènes,43.6428293221212,3.93662999335443,0,55239,1
624,20217,Arènes,43.6429848563653,3.93705525168672,0,55239,1
55240,,Baléares,43.6512900839398,3.94383776283102,1,,1
601,20124,Baléares,43.6512900839398,3.94383776283102,0,55240,1
617,20210,Baléares,43.6513282337947,3.94369026223768,0,55240,1
55241,,Capri,43.6460563797867,3.93847840653484,1,,1
597,20119,Capri,43.6460563797867,3.93847840653484,0,55241,1
623,20216,Capri,43.6465889661743,3.93893903718679,0,55241,1
55242,,Chênes,43.6451988568339,3.94174739510824,1,,1
598,20120,Chênes,43.6451988568339,3.94174739510824,0,55242,1
622,20215,Chênes,43.6451221996949,3.94146050271311,0,55242,1
55243,,Cimetière,43.6511652282725,3.94073895070555,1,,1
600,20123,Cimetière,43.6511652282725,3.94073895070555,0,55243,1
618,20211,Cimetière,43.6511938375128,3.94062832396759,0,55243,1
55244,,Fernand Rouché,43.6475607919,3.94130620961306,1,,1
599,20121,Fernand Rouché,43.6475607919,3.94130620961306,0,55244,1
621,20214,Fernand Rouché,43.6474799150244,3.94130393621185,0,55244,1
55246,,Jean Jaurès,43.6572372442651,3.9429155649451,1,,1
603,20126,Jean Jaurès,43.6572372442651,3.9429155649451,0,55246,1
615,20208,Jean Jaurès,43.6566184693101,3.94281147482403,0,55246,1
55247,,Le Crès,43.6389738949026,3.93410813967641,1,,1
639,21101,Le Crès,43.6389738949026,3.93410813967641,0,55247,1
55249,,Maumarin,43.6613927884307,3.94398604210392,1,,1
930,30105,Maumarin,43.6613927884307,3.94398604210392,0,55249,1
931,30201,Maumarin,43.6614461556636,3.94402469535395,0,55249,1
55250,,Monteroni d'Arbia,43.6601217917364,3.93632224382456,1,,1
928,30103,Monteroni d'Arbia,43.6601217917364,3.93632224382456,0,55250,1
932,30203,Monteroni d'Arbia,43.6601758930944,3.93631137705533,0,55250,1
55252,,Pointes,43.63865085189,3.93284887834069,1,,1
625,20218,Pointes,43.63865085189,3.93284887834069,0,55252,1
55253,,Rocailles,43.6568261578305,3.9360689079116,1,,1
606,20129,Rocailles,43.6568261578305,3.9360689079116,0,55253,1
612,20205,Rocailles,43.6569127024147,3.93568747825175,0,55253,1
55254,,Route de Nîmes,43.6416006644368,3.94250039302967,1,,1
640,21102,Route de Nîmes,43.6416006644368,3.94250039302967,0,55254,1
667,21216,Route de Nîmes,43.6417851621353,3.94218372455138,0,55254,1
55255,,Sienne,43.6622712970194,3.94112540559581,1,,1
929,30104,Sienne,43.6622712970194,3.94112540559581,0,55255,1
933,30204,Sienne,43.6622907370776,3.94102688334114,0,55255,1
55256,,Substantion,43.6504620845288,3.9396544233764,1,,1
607,20136,Substantion,43.6504620845288,3.9396544233764,0,55256,1
619,20212,Substantion,43.6502359600201,3.9397471212206,0,55256,1
55257,,Albinoni,43.5581350418709,3.7863754578992,1,,1
983,33104,Albinoni,43.5581350418709,3.7863754578992,0,55257,1
998,33206,Albinoni,43.5580623249801,3.78643541682062,0,55257,1
55258,,École La Gardiole,43.5575574830218,3.78251671986047,1,,1
985,33106,École La Gardiole,43.5575574830218,3.78251671986047,0,55258,1
996,33204,École La Gardiole,43.5572462762043,3.78226164292849,0,55258,1
55259,,Jeu de Ballon,43.5521875462385,3.77604063951607,1,,1
986,33107,Jeu de Ballon,43.5521875462385,3.77604063951607,0,55259,1
995,33203,Jeu de Ballon,43.5521899503703,3.77653506985874,0,55259,1
55260,,Le Hameau,43.5470266703408,3.77342675546985,1,,1
988,33109,Le Hameau,43.5470266703408,3.77342675546985,0,55260,1
55261,,Les Cousses,43.5578534581975,3.78994050392317,1,,1
982,33103,Les Cousses,43.5578534581975,3.78994050392317,0,55261,1
999,33207,Les Cousses,43.5578283271999,3.78980389959415,0,55261,1
55262,,Les Écoles,43.549484104441,3.77722081493698,1,,1
987,33108,Les Écoles,43.549484104441,3.77722081493698,0,55262,1
994,33202,Les Écoles,43.5494872326057,3.77698607913234,0,55262,1
55263,,Les Hauts,43.5585575465597,3.79439588077278,1,,1
981,33102,Les Hauts,43.5585575465597,3.79439588077278,0,55263,1
1000,33208,Les Hauts,43.5584324085762,3.79434324761215,0,55263,1
55264,,Lou Paillas,43.5455589484766,3.77429200017013,1,,1
979,33100,Lou Paillas,43.5455589484766,3.77429200017013,0,55264,1
1359,33117,Lou Paillas,43.5455589484766,3.77429200017013,0,55264,1
55265,,Paix,43.5554537263135,3.77917577114427,1,,1
989,33110,Paix,43.5554537263135,3.77917577114427,0,55265,1
1002,33210,Paix,43.5552481161988,3.77841662911049,0,55265,1
55266,,Rouget de Lisle,43.5570936856391,3.78426015772241,1,,1
984,33105,Rouget de Lisle,43.5570936856391,3.78426015772241,0,55266,1
997,33205,Rouget de Lisle,43.5569121446524,3.78439152458627,0,55266,1
55267,,Avenue de Rome,43.6432406913763,3.82392823740357,1,,1
782,24104,Avenue de Rome,43.6432406913763,3.82392823740357,0,55267,1
806,24210,Avenue de Rome,43.643142009288,3.8239132876405,0,55267,1
55268,,Cave Coopérative,43.6472203757665,3.8003862504151,1,,1
786,24108,Cave Coopérative,43.6472203757665,3.8003862504151,0,55268,1
802,24206,Cave Coopérative,43.6467186942592,3.80158660695147,0,55268,1
55269,,Grabels Centre,43.64789356239,3.79713518113851,1,,1
787,24109,Grabels Centre,43.64789356239,3.79713518113851,0,55269,1
801,24205,Grabels Centre,43.6473597766086,3.79871853501866,0,55269,1
55270,,Garriguettes,43.6464833470499,3.80369750373487,1,,1
785,24107,Garriguettes,43.6464833470499,3.80369750373487,0,55270,1
803,24207,Garriguettes,43.6465042855508,3.80546834629662,0,55270,1
55271,,Gaston Planté,43.6465394490928,3.83114495623878,1,,1
797,24125,Gaston Planté,43.6465394490928,3.83114495623878,0,55271,1
813,24225,Gaston Planté,43.6466977902818,3.83139669878468,0,55271,1
55272,,Genêts,43.6457980631527,3.8098077986378,1,,1
783,24105,Genêts,43.6457980631527,3.8098077986378,0,55272,1
805,24209,Genêts,43.6456537191338,3.81116582833473,0,55272,1
55273,,La Valsière,43.6500911262756,3.83174554313606,1,,1
790,24116,La Valsière,43.6500911262756,3.83174554313606,0,55273,1
1347,24216,La Valsière,43.6500911262756,3.83174554313606,0,55273,1
55274,,Le Pradas,43.6608543052475,3.79198122815254,1,,1
798,24201,Le Pradas,43.6608543052475,3.79198122815254,0,55274,1
55275,,Le Rio,43.6466636110622,3.80631427117979,1,,1
784,24106,Le Rio,43.6466636110622,3.80631427117979,0,55275,1
804,24208,Le Rio,43.646293636607,3.80774079373788,0,55275,1
55276,,Les Terrasses,43.6547330011201,3.79058701483149,1,,1
789,24112,Les Terrasses,43.6547330011201,3.79058701483149,0,55276,1
799,24202,Les Terrasses,43.6545396142363,3.79026017134638,0,55276,1
55277,,L'Île Bleue,43.6483548367911,3.83183625328128,1,,1
791,24117,L'Île Bleue,43.6483548367911,3.83183625328128,0,55277,1
808,24215,L'Île Bleue,43.6484667052179,3.83219821074534,0,55277,1
55278,,Source,43.6506648675661,3.79094148627572,1,,1
788,24110,Source,43.6506648675661,3.79094148627572,0,55278,1
800,24204,Source,43.6505939715505,3.79086539659156,0,55278,1
55279,,Bel Air,43.6598640290202,3.92206214893719,1,,1
694,22131,Bel Air,43.6598640290202,3.92206214893719,0,55279,1
55280,,Bibliothèque,43.6589943641775,3.91142592874594,1,,1
702,22169,Bibliothèque,43.6589943641775,3.91142592874594,0,55280,1
727,22269,Bibliothèque,43.6591399476986,3.91130611736235,0,55280,1
55281,,C. Sylvains,43.6562251601759,3.9145317504333,1,,1
690,22126,C. Sylvains,43.6562251601759,3.9145317504333,0,55281,1
55282,,Chesnaie,43.65886447893,3.92401563138875,1,,1
686,22122,Chesnaie,43.65886447893,3.92401563138875,0,55282,1
55283,,Cimetière Jacou,43.6591494979054,3.90941180974736,1,,1
685,22115,Cimetière Jacou,43.6591494979054,3.90941180974736,0,55283,1
709,22207,Cimetière Jacou,43.6594498218847,3.90792175727016,0,55283,1
55284,,Clos des Garrigues,43.657710629139,3.91931532355401,1,,1
688,22124,Clos des Garrigues,43.657710629139,3.91931532355401,0,55284,1
55285,,Coeur de Ville,43.6594373458094,3.91310984076791,1,,1
708,22206,Coeur de Ville,43.6594373458094,3.91310984076791,0,55285,1
55286,,Collège Pierre Mendès France,43.6672513138801,3.91238446872628,1,,1
695,22135,Collège Pierre Mendès France,43.6672513138801,3.91238446872628,0,55286,1
719,22222,Collège Pierre Mendès France,43.6671896690639,3.91229607463312,0,55286,1
55287,,De Bocaud,43.6595636520239,3.90378900462935,1,,1
684,22114,De Bocaud,43.6595636520239,3.90378900462935,0,55287,1
710,22208,De Bocaud,43.6596716968525,3.90439873391089,0,55287,1
55288,,Écureuil,43.6628273031416,3.90997135454198,1,,1
700,22165,Écureuil,43.6628273031416,3.90997135454198,0,55288,1
724,22262,Écureuil,43.6635183687162,3.90943313618745,0,55288,1
55289,,Grand Rue,43.659305933294,3.91903760561673,1,,1
693,22130,Grand Rue,43.659305933294,3.91903760561673,0,55289,1
55290,,Hélios,43.6614662424084,3.91946900195475,1,,1
706,22204,Hélios,43.6614662424084,3.91946900195475,0,55290,1
55291,,Jacou,43.6547029283364,3.91288002848885,1,,1
696,22136,Jacou,43.6547029283364,3.91288002848885,0,55291,1
721,22237,Jacou,43.6546939419025,3.91287978033304,0,55291,1
1219,42169,Jacou,43.6546040775665,3.91287729877921,0,55291,1
1343,22236,Jacou,43.6547029283364,3.91288002848885,0,55291,1
55292,,Jean Joubert,43.6672819548778,3.91460215683388,1,,1
1126,39101,Jean Joubert,43.6672819548778,3.91460215683388,0,55292,1
1128,39201,Jean Joubert,43.6673184420604,3.91456601191233,0,55292,1
55293,,La Draye,43.6688846015263,3.91751978013283,1,,1
697,22137,La Draye,43.6688846015263,3.91751978013283,0,55293,1
55294,,Lou Pradet,43.6622564197652,3.92199238835,1,,1
705,22203,Lou Pradet,43.6622564197652,3.92199238835,0,55294,1
55295,,Lucien Lambert,43.6569490193857,3.91236008522556,1,,1
1127,39102,Lucien Lambert,43.6569490193857,3.91236008522556,0,55295,1
1129,39202,Lucien Lambert,43.6569499199598,3.91229819835448,0,55295,1
55296,,Parc,43.6613120054266,3.90907513640856,1,,1
701,22166,Parc,43.6613120054266,3.90907513640856,0,55296,1
723,22261,Parc,43.6615681195381,3.90939177607437,0,55296,1
55297,,Piscine,43.6605751635585,3.92629218105293,1,,1
703,22201,Piscine,43.6605751635585,3.92629218105293,0,55297,1
55298,,Le Pontil,43.6621879238232,3.92482631138698,1,,1
704,22202,Le Pontil,43.6621879238232,3.92482631138698,0,55298,1
55299,,Roland Garros,43.6562866447651,3.91709656834973,1,,1
689,22125,Roland Garros,43.6562866447651,3.91709656834973,0,55299,1
55300,,Romarin,43.6575127761607,3.91377486790987,1,,1
691,22128,Romarin,43.6575127761607,3.91377486790987,0,55300,1
55301,,Roveraie,43.6583717358433,3.92205784533887,1,,1
687,22123,Roveraie,43.6583717358433,3.92205784533887,0,55301,1
55302,,Thym,43.6591524172321,3.91723783724737,1,,1
692,22129,Thym,43.6591524172321,3.91723783724737,0,55302,1
55303,,Tournesol,43.6603962469962,3.91578631038341,1,,1
707,22205,Tournesol,43.6603962469962,3.91578631038341,0,55303,1
55304,,Allée de l'Europe,43.6139435933472,3.81011219636448,1,,1
829,25128,Allée de l'Europe,43.6139435933472,3.81011219636448,0,55304,1
850,25228,Allée de l'Europe,43.6138082923281,3.81014582426996,0,55304,1
55305,,Calade,43.6278396970131,3.79964199437042,1,,1
823,25115,Calade,43.6278396970131,3.79964199437042,0,55305,1
837,25203,Calade,43.6280096043925,3.79970822569717,0,55305,1
55306,,Églantiers,43.6078746360328,3.81282582594312,1,,1
817,25104,Églantiers,43.6078746360328,3.81282582594312,0,55306,1
843,25214,Églantiers,43.6078017329316,3.81289817042971,0,55306,1
55307,,Fontcaude,43.6321169591642,3.80176896625415,1,,1
835,25201,Fontcaude,43.6321169591642,3.80176896625415,0,55307,1
849,25226,Fontcaude,43.6323584230524,3.80186179826462,0,55307,1
55308,,Grand Chêne,43.6199746369738,3.79758443747813,1,,1
826,25120,Grand Chêne,43.6199746369738,3.79758443747813,0,55308,1
848,25220,Grand Chêne,43.6200631655203,3.79768569390263,0,55308,1
55309,,Hauts de Fontcaude,43.6321792623191,3.79849075719746,1,,1
825,25118,Hauts de Fontcaude,43.6321792623191,3.79849075719746,0,55309,1
847,25219,Hauts de Fontcaude,43.6321719087268,3.79903514052518,0,55309,1
55310,,Hôtel de Ville,43.6139562593701,3.8052129318771,1,,1
830,25129,Hôtel de Ville,43.6139562593701,3.8052129318771,0,55310,1
851,25229,Hôtel de Ville,43.6138753818252,3.80521085255219,0,55310,1
55311,,Juvignac,43.6174850753856,3.81014168845545,1,,1
1249,43101,Juvignac,43.6174850753856,3.81014168845545,0,55311,1
55312,,La Bergerie,43.6170743813242,3.7966688691166,1,,1
834,25133,La Bergerie,43.6170743813242,3.7966688691166,0,55312,1
855,25233,La Bergerie,43.6169941709535,3.79661732551847,0,55312,1
55313,,La Plaine,43.6117081690363,3.81450853831305,1,,1
815,25102,La Plaine,43.6117081690363,3.81450853831305,0,55313,1
845,25216,La Plaine,43.6117514115113,3.81463337953702,0,55313,1
55314,,Le Labournas,43.6145403198444,3.80058814136301,1,,1
831,25130,Le Labournas,43.6145403198444,3.80058814136301,0,55314,1
852,25230,Le Labournas,43.6144221578344,3.80068409529937,0,55314,1
55315,,Le Martinet,43.6340837136982,3.80324279009331,1,,1
827,25125,Le Martinet,43.6340837136982,3.80324279009331,0,55315,1
1349,25134,Le Martinet,43.6340837136982,3.80324279009331,0,55315,1
55316,,Les Thermes,43.6218554922438,3.80009505232772,1,,1
833,25132,Les Thermes,43.6218554922438,3.80009505232772,0,55316,1
854,25232,Les Thermes,43.621856495887,3.80002083167668,0,55316,1
55317,,Luminaire,43.6079914784399,3.81084941715938,1,,1
818,25105,Luminaire,43.6079914784399,3.81084941715938,0,55317,1
842,25213,Luminaire,43.6078453377763,3.8110188453731,0,55317,1
55318,,Marjories,43.6098035361488,3.8078279711143,1,,1
819,25106,Marjories,43.6098035361488,3.8078279711143,0,55318,1
841,25212,Marjories,43.6097049465149,3.80714498398612,0,55318,1
55319,,Mélanie,43.6306638805927,3.79820443901082,1,,1
824,25116,Mélanie,43.6306638805927,3.79820443901082,0,55319,1
836,25202,Mélanie,43.6307630664802,3.79818222493652,0,55319,1
55320,,Récantou,43.6130768596766,3.81565747742886,1,,1
814,25101,Récantou,43.6130768596766,3.81565747742886,0,55320,1
846,25217,Récantou,43.6130017564324,3.81589061076884,0,55320,1
55321,,Rivière,43.609877379271,3.81559938420182,1,,1
816,25103,Rivière,43.609877379271,3.81559938420182,0,55321,1
844,25215,Rivière,43.609570153063,3.81571514801705,0,55321,1
55322,,Route de Saint-Georges,43.6128162970221,3.8090562033808,1,,1
821,25108,Route de Saint-Georges,43.6128162970221,3.8090562033808,0,55322,1
839,25210,Route de Saint-Georges,43.6127667541116,3.80873324261745,0,55322,1
55323,,Terres du Sud,43.6185412453029,3.79188063779574,1,,1
832,25131,Terres du Sud,43.6185412453029,3.79188063779574,0,55323,1
853,25231,Terres du Sud,43.6185412453029,3.79188063779574,0,55323,1
55324,,Valat de la Fosse,43.610526571974,3.80555777966357,1,,1
820,25107,Valat de la Fosse,43.610526571974,3.80555777966357,0,55324,1
840,25211,Valat de la Fosse,43.6106833695032,3.80526488384338,0,55324,1
55325,,Village,43.6247859622184,3.79944001776514,1,,1
822,25114,Village,43.6247859622184,3.79944001776514,0,55325,1
838,25204,Village,43.6247145719778,3.79940106420553,0,55325,1
55326,,Boirargues,43.5827431376295,3.92553702357343,1,,1
1269,43149,Boirargues,43.5827431376295,3.92553702357343,0,55326,1
1278,43209,Boirargues,43.5827424111593,3.92558646860367,0,55326,1
55327,,Lattes Centre,43.5705033490628,3.90432699564591,1,,1
574,18125,Lattes Centre,43.5705033490628,3.90432699564591,0,55327,1
1298,43259,Lattes Centre,43.5707492411912,3.90534755848525,0,55327,1
1337,18228,Lattes Centre,43.5705033490628,3.90432699564591,0,55327,1
55328,,Céreirède,43.5812171650791,3.89822771467656,1,,1
548,17102,Céreirède,43.5812171650791,3.89822771467656,0,55328,1
559,17220,Céreirède,43.5813126190581,3.89846527518945,0,55328,1
55329,,Chemin de Lattes,43.5723996223071,3.89628059130463,1,,1
549,17103,Chemin de Lattes,43.5723996223071,3.89628059130463,0,55329,1
558,17219,Chemin de Lattes,43.5730755976848,3.89678123693295,0,55329,1
55330,,Cimetière Saint-Laurent,43.5697549965989,3.89889129323391,1,,1
564,18101,Cimetière Saint-Laurent,43.5697549965989,3.89889129323391,0,55330,1
577,18208,Cimetière Saint-Laurent,43.5686424644655,3.89998593668079,0,55330,1
55331,,Cougourlude,43.5713566155736,3.91426615862094,1,,1
1273,43161,Cougourlude,43.5713566155736,3.91426615862094,0,55331,1
1299,43261,Cougourlude,43.5713390045051,3.91424094494377,0,55331,1
55332,,Crédit Agricole,43.5588112816511,3.87658965476744,1,,1
567,18115,Crédit Agricole,43.5588112816511,3.87658965476744,0,55332,1
875,27201,Crédit Agricole,43.558820267506,3.87658989680211,0,55332,1
55333,,Entreprises,43.5641941760398,3.87923181001022,1,,1
572,18123,Entreprises,43.5641941760398,3.87923181001022,0,55333,1
578,18219,Entreprises,43.5640669630444,3.87932727430571,0,55333,1
872,27104,Entreprises,43.5641941760398,3.87923181001022,0,55333,1
876,27210,Entreprises,43.5640669630444,3.87932727430571,0,55333,1
55334,,Gramenet,43.5488187026357,3.89453748467952,1,,1
556,17217,Gramenet,43.5488187026357,3.89453748467952,0,55334,1
55335,,Mairie,43.5686691569199,3.90435087205778,1,,1
566,18103,Mairie,43.5686691569199,3.90435087205778,0,55335,1
575,18206,Mairie,43.5684755889832,3.90406121087847,0,55335,1
55336,,Manse,43.5700138791788,3.87835033685807,1,,1
871,27103,Manse,43.5700138791788,3.87835033685807,0,55336,1
877,27211,Manse,43.5699220814049,3.87848385822727,0,55336,1
55337,,Méjean,43.5682895137399,3.90014936726589,1,,1
565,18102,Méjean,43.5682895137399,3.90014936726589,0,55337,1
55338,,Montouzères,43.5686955467274,3.88505268682093,1,,1
569,18119,Montouzères,43.5686955467274,3.88505268682093,0,55338,1
580,18223,Montouzères,43.5685903704709,3.88486439108746,0,55338,1
55339,,Montpellieret,43.5598726765439,3.8771744983394,1,,1
568,18118,Montpellieret,43.5598726765439,3.8771744983394,0,55339,1
571,18122,Montpellieret,43.5599290567292,3.87700296047471,0,55339,1
579,18222,Montpellieret,43.5598726765439,3.8771744983394,0,55339,1
582,18226,Montpellieret,43.5599290567292,3.87700296047471,0,55339,1
55340,,Oasis Palavasienne,43.555499136353,3.89256881703337,1,,1
550,17104,Oasis Palavasienne,43.555499136353,3.89256881703337,0,55340,1
557,17218,Oasis Palavasienne,43.5552593698877,3.89361291428774,0,55340,1
55341,,Saint-Pierre,43.5724932565199,3.89352597585097,1,,1
570,18121,Saint-Pierre,43.5724932565199,3.89352597585097,0,55341,1
581,18224,Saint-Pierre,43.5724049989197,3.89341229619823,0,55341,1
55342,,Ancienne Gare,43.5892099567357,3.80111413147178,1,,1
1113,38106,Ancienne Gare,43.5892099567357,3.80111413147178,0,55342,1
1122,38206,Ancienne Gare,43.5891400754636,3.80096393287992,0,55342,1
55343,,La Capoulière,43.5861106363036,3.8089122757797,1,,1
1109,38102,La Capoulière,43.5861106363036,3.8089122757797,0,55343,1
1118,38202,La Capoulière,43.5863199092235,3.80938760270303,0,55343,1
55344,,La Croix,43.5849471639195,3.80721283528826,1,,1
1110,38103,La Croix,43.5849471639195,3.80721283528826,0,55344,1
1119,38203,La Croix,43.5849712648,3.80742368471963,0,55344,1
55345,,Les Serres,43.5855519880196,3.80371629934474,1,,1
1111,38104,Les Serres,43.5855519880196,3.80371629934474,0,55345,1
1120,38204,Les Serres,43.585435335099,3.80370093821759,0,55345,1
55346,,Mas de Lépôt,43.5868003219458,3.79849245408404,1,,1
1114,38107,Mas de Lépôt,43.5868003219458,3.79849245408404,0,55346,1
1123,38207,Mas de Lépôt,43.586657377854,3.79842696371861,0,55346,1
55347,,Mas la Farouch,43.5871047212252,3.80256894068827,1,,1
1112,38105,Mas la Farouch,43.5871047212252,3.80256894068827,0,55347,1
1121,38205,Mas la Farouch,43.587025185705,3.80246796560446,0,55347,1
55348,,Camp du Soleil,43.7493779054865,3.96058182813622,1,,1
1064,36156,Camp du Soleil,43.7493779054865,3.96058182813622,0,55348,1
1104,36259,Camp du Soleil,43.7495029802379,3.96063500273693,0,55348,1
55349,,École,43.7498857473799,3.95608171980787,1,,1
1063,36155,École,43.7498857473799,3.95608171980787,0,55349,1
1105,36260,École,43.7498209872493,3.9562039062155,0,55349,1
55350,,Église,43.7511733905913,3.95655241565616,1,,1
1096,36250,Église,43.7511733905913,3.95655241565616,0,55350,1
1365,36242,Église,43.7511733905913,3.95655241565616,0,55350,1
55351,,Aqueduc,43.6536849834474,3.85707302395963,1,,1
730,23104,Aqueduc,43.6536849834474,3.85707302395963,0,55351,1
774,23224,Aqueduc,43.6535773186152,3.85705777478756,0,55351,1
55352,,Baillarguet,43.6777166136888,3.86718921325335,1,,1
741,23115,Baillarguet,43.6777166136888,3.86718921325335,0,55352,1
763,23213,Baillarguet,43.6773137871345,3.86706692831838,0,55352,1
55353,,Chemin du Cambas,43.6589409071051,3.850241630011,1,,1
732,23106,Chemin du Cambas,43.6589409071051,3.850241630011,0,55353,1
772,23222,Chemin du Cambas,43.6587241905234,3.85031017830425,0,55353,1
55354,,Chemin Neuf,43.6670769879061,3.85856917459521,1,,1
737,23111,Chemin Neuf,43.6670769879061,3.85856917459521,0,55354,1
767,23217,Chemin Neuf,43.6673291357507,3.85853874559877,0,55354,1
55355,,Cirad de Baillarguet,43.6838078456874,3.87699052510713,1,,1
751,23125,Cirad de Baillarguet,43.6838078456874,3.87699052510713,0,55355,1
780,23233,Cirad de Baillarguet,43.6838344536627,3.87701601962849,0,55355,1
55356,,Distillerie,43.6752963962588,3.86732247530793,1,,1
740,23114,Distillerie,43.6752963962588,3.86732247530793,0,55356,1
764,23214,Distillerie,43.6751083759528,3.86726788706267,0,55356,1
55357,,Font de Salomé,43.676576539873,3.87151867101168,1,,1
755,23133,Font de Salomé,43.676576539873,3.87151867101168,0,55357,1
781,23237,Font de Salomé,43.6766424290713,3.87130987300005,0,55357,1
55358,,Font du Noyer,43.6658835328596,3.8526425122086,1,,1
736,23110,Font du Noyer,43.6658835328596,3.8526425122086,0,55358,1
768,23218,Font du Noyer,43.665973745893,3.85262014034861,0,55358,1
55359,,Fontaine des Chênes,43.662519485339,3.84698064375089,1,,1
734,23108,Fontaine des Chênes,43.662519485339,3.84698064375089,0,55359,1
770,23220,Fontaine des Chênes,43.6616965219556,3.84733036142145,0,55359,1
55360,,La Grand Font,43.6689547517464,3.86120767327656,1,,1
738,23112,La Grand Font,43.6689547517464,3.86120767327656,0,55360,1
766,23216,La Grand Font,43.6687722017368,3.86012532305176,0,55360,1
55361,,La Lironde,43.6603103419532,3.84874246872834,1,,1
733,23107,La Lironde,43.6603103419532,3.84874246872834,0,55361,1
771,23221,La Lironde,43.6599384335912,3.84898027191771,0,55361,1
55362,,Mas de Gué,43.657282150098,3.85185686243152,1,,1
731,23105,Mas de Gué,43.657282150098,3.85185686243152,0,55362,1
773,23223,Mas de Gué,43.6572023099813,3.85178044972201,0,55362,1
55363,,Picadou,43.6691896412202,3.86240289359509,1,,1
739,23113,Picadou,43.6691896412202,3.86240289359509,0,55363,1
765,23215,Picadou,43.6690153926238,3.86137029578767,0,55363,1
55364,,Picheyrou,43.6531803897381,3.86035302618285,1,,1
729,23103,Picheyrou,43.6531803897381,3.86035302618285,0,55364,1
775,23225,Picheyrou,43.653090350149,3.86036300410523,0,55364,1
55365,,Quatre Chemins,43.6650827388391,3.84625590736722,1,,1
735,23109,Quatre Chemins,43.6650827388391,3.84625590736722,0,55365,1
769,23219,Quatre Chemins,43.6649897519127,3.84583239562169,0,55365,1
55366,,Rapatel,43.6516428529494,3.86419963214759,1,,1
728,23102,Rapatel,43.6516428529494,3.86419963214759,0,55366,1
776,23226,Rapatel,43.6514341461787,3.86497405030621,0,55366,1
55367,,Agropolis,43.6467354791926,3.86857463844225,1,,1
189,5165,Agropolis,43.6467354791926,3.86857463844225,0,55367,1
206,5280,Agropolis,43.6464311646413,3.86847981293678,0,55367,1
207,5281,Agropolis,43.6464220030625,3.86849194703528,0,55367,1
55368,,Aiguelongue,43.6264049141559,3.88217459091951,1,,1
184,5136,Aiguelongue,43.6264049141559,3.88217459091951,0,55368,1
204,5236,Aiguelongue,43.62677423626,3.8821227075541,0,55368,1
1209,42147,Aiguelongue,43.6262207438229,3.88311015145899,0,55368,1
1229,42223,Aiguelongue,43.6262568658232,3.88309875403403,0,55368,1
55369,,Aiguelongue (Jussieu),43.6384122435896,3.8830195027053,1,,1
481,11201,Aiguelongue (Jussieu),43.6384122435896,3.8830195027053,0,55369,1
55370,,Albert Einstein,43.6131461320041,3.93713481321889,1,,1
501,12118,Albert Einstein,43.6131461320041,3.93713481321889,0,55370,1
510,12203,Albert Einstein,43.6132286533042,3.93702576897348,0,55370,1
55371,,Alco,43.6255832627692,3.84031117591848,1,,1
83,3135,Alco,43.6255832627692,3.84031117591848,0,55371,1
90,3201,Alco,43.6258279063947,3.83952559337348,0,55371,1
55372,,Alfred Nobel,43.6164184164071,3.91078413583713,1,,1
504,12125,Alfred Nobel,43.6164184164071,3.91078413583713,0,55372,1
521,12220,Alfred Nobel,43.6157518349011,3.90963978499191,0,55372,1
55373,,Alpilles,43.6302231184207,3.87919619492214,1,,1
473,11115,Alpilles,43.6302231184207,3.87919619492214,0,55373,1
487,11208,Alpilles,43.6297773209994,3.87956781957508,0,55373,1
55374,,Ambroise Paré,43.6380121390239,3.84769396815333,1,,1
46,2125,Ambroise Paré,43.6380121390239,3.84769396815333,0,55374,1
55375,,Anatole France,43.6055685075168,3.8763779114993,1,,1
44,1236,Anatole France,43.6055685075168,3.8763779114993,0,55375,1
55376,,André Malraux,43.6194095977056,3.90041039087255,1,,1
352,9126,André Malraux,43.6194095977056,3.90041039087255,0,55376,1
366,9202,André Malraux,43.6195016047928,3.90026441974371,0,55376,1
55377,,Antennes,43.6447440345659,3.84199188635127,1,,1
48,2127,Antennes,43.6447440345659,3.84199188635127,0,55377,1
57,2205,Antennes,43.6446775150869,3.84225010122023,0,55377,1
55378,,Antigone,43.6085859594197,3.88666594937517,1,,1
1149,41139,Antigone,43.6085859594197,3.88666594937517,0,55378,1
1168,41217,Antigone,43.6086044632931,3.88662933610549,0,55378,1
55379,,Antoine-Laurent de Jussieu,43.6372759965417,3.88011703757505,1,,1
478,11121,Antoine-Laurent de Jussieu,43.6372759965417,3.88011703757505,0,55379,1
482,11202,Antoine-Laurent de Jussieu,43.6372419916179,3.8799799606667,0,55379,1
55380,,Apollo,43.621890487853,3.90849713777414,1,,1
361,9145,Apollo,43.621890487853,3.90849713777414,0,55380,1
1334,9142,Apollo,43.6219442262782,3.90912972875351,0,55380,1
55381,,Apothicaires,43.6416055356031,3.83493987782508,1,,1
87,3139,Apothicaires,43.6416055356031,3.83493987782508,0,55381,1
117,3232,Apothicaires,43.6416377135151,3.83521305556596,0,55381,1
55382,,Appel du 18 Juin,43.6365468360809,3.83020264138175,1,,1
546,16202,Appel du 18 Juin,43.6365468360809,3.83020264138175,0,55382,1
55383,,Astruc,43.6101901656071,3.85467816669653,1,,1
1257,43117,Astruc,43.6101901656071,3.85467816669653,0,55383,1
1290,43241,Astruc,43.6102413067142,3.85487747840306,0,55383,1
55384,,Avenue de l'Agriculture,43.6121045511517,3.86110085609429,1,,1
346,9117,Avenue de l'Agriculture,43.6121045511517,3.86110085609429,0,55384,1
375,9211,Avenue de l'Agriculture,43.6121868214637,3.86100407185305,0,55384,1
55385,,Avenue de Toulouse,43.5913323896995,3.85771442792373,1,,1
215,6106,Avenue de Toulouse,43.5913323896995,3.85771442792373,0,55385,1
236,6215,Avenue de Toulouse,43.5918215839685,3.85808612377915,0,55385,1
55386,,Bagatelle,43.5953757808545,3.84436480129148,1,,1
134,4142,Bagatelle,43.5953757808545,3.84436480129148,0,55386,1
166,4244,Bagatelle,43.5950546909237,3.84418316658468,0,55386,1
55387,,Beaux-Arts,43.6169999109354,3.88355341465341,1,,1
1207,42143,Beaux-Arts,43.6169999109354,3.88355341465341,0,55387,1
1231,42227,Beaux-Arts,43.6170184138744,3.88351679498035,0,55387,1
55388,,Bellevue,43.5966406633686,3.88087471266643,1,,1
495,12108,Bellevue,43.5966406633686,3.88087471266643,0,55388,1
55389,,Belvédère,43.6170313356835,3.84244937371479,1,,1
338,9109,Belvédère,43.6170313356835,3.84244937371479,0,55389,1
383,9219,Belvédère,43.6172629148583,3.84260396121804,0,55389,1
55390,,Bengalis,43.6285875033478,3.88293909923984,1,,1
396,10105,Bengalis,43.6285875033478,3.88293909923984,0,55390,1
439,10215,Bengalis,43.6286565657461,3.88313898719776,0,55390,1
55391,,Berthelot,43.6018471907335,3.86938737434033,1,,1
173,5118,Berthelot,43.6018471907335,3.86938737434033,0,55391,1
198,5214,Berthelot,43.6021286154052,3.86982788605477,0,55391,1
55392,,Boulevard des Sports,43.6193551147235,3.88921030305554,1,,1
313,8113,Boulevard des Sports,43.6193551147235,3.88921030305554,0,55392,1
330,8211,Boulevard des Sports,43.6194176635163,3.88923675162121,0,55392,1
55393,,Boutonnet,43.6225867509347,3.8680877655281,1,,1
1141,41123,Boutonnet,43.6225867509347,3.8680877655281,0,55393,1
1176,41233,Boutonnet,43.6225952120886,3.86812511668937,0,55393,1
55394,,Bugarel,43.591511062436,3.84495543432725,1,,1
425,10156,Bugarel,43.591511062436,3.84495543432725,0,55394,1
463,10256,Bugarel,43.5917284540966,3.84483749256487,0,55394,1
55395,,Caducée,43.6435606549666,3.83267627625175,1,,1
795,24123,Caducée,43.6435606549666,3.83267627625175,0,55395,1
811,24223,Caducée,43.6435017759786,3.83303372976024,0,55395,1
55396,,Cairons,43.6433131323169,3.86073340358782,1,,1
179,5128,Cairons,43.6433131323169,3.86073340358782,0,55396,1
191,5203,Cairons,43.6430245198712,3.86079997402942,0,55396,1
55397,,Campus Agropolis,43.645043570404,3.8687025534487,1,,1
530,13103,Campus Agropolis,43.645043570404,3.8687025534487,0,55397,1
531,13104,Campus Agropolis,43.6450342336826,3.86872706214249,0,55397,1
533,13203,Campus Agropolis,43.6446723752334,3.86952202196614,0,55397,1
534,13204,Campus Agropolis,43.6446657885406,3.86871717455537,0,55397,1
55398,,Carriéra,43.6408633897738,3.81897677236803,1,,1
26,1143,Carriéra,43.6408633897738,3.81897677236803,0,55398,1
32,1208,Carriéra,43.6407614876094,3.81919694063455,0,55398,1
55399,,Castelle,43.5866513590483,3.87217048296528,1,,1
170,5102,Castelle,43.5866513590483,3.87217048296528,0,55399,1
199,5228,Castelle,43.5866185738324,3.87194699640304,0,55399,1
55400,,Catalpas,43.5928145861454,3.88377682088568,1,,1
520,12215,Catalpas,43.5928145861454,3.88377682088568,0,55400,1
55401,,Celleneuve,43.6160378798381,3.82589254164288,1,,1
405,10119,Celleneuve,43.6160378798381,3.82589254164288,0,55401,1
431,10201,Celleneuve,43.6159756561869,3.8258414265172,0,55401,1
1251,43105,Celleneuve,43.6153633920295,3.82591207529301,0,55401,1
1296,43253,Celleneuve,43.6156061939827,3.82590603272639,0,55401,1
55402,,Centrayrargues,43.5968223270964,3.88074356117271,1,,1
517,12210,Centrayrargues,43.5968223270964,3.88074356117271,0,55402,1
55403,,Cervantès,43.6221497181499,3.85508267219035,1,,1
249,7109,Cervantès,43.6221497181499,3.85508267219035,0,55403,1
294,7222,Cervantès,43.62290426136,3.85448399409253,0,55403,1
55404,,Cévennes,43.622101506859,3.84632017448228,1,,1
81,3130,Cévennes,43.622101506859,3.84632017448228,0,55404,1
92,3203,Cévennes,43.6220220100698,3.84621907657979,0,55404,1
55405,,Chambéry,43.5993273441527,3.88912374751517,1,,1
308,8105,Chambéry,43.5993273441527,3.88912374751517,0,55405,1
336,8220,Chambéry,43.5988776179177,3.88976712065994,0,55405,1
55406,,Chantecler,43.6325382549738,3.87823144945291,1,,1
474,11116,Chantecler,43.6325382549738,3.87823144945291,0,55406,1
486,11207,Chantecler,43.6322957994405,3.87821252699571,0,55406,1
55407,,Charles Flahault,43.6184121915158,3.86641672825558,1,,1
186,5140,Charles Flahault,43.6184121915158,3.86641672825558,0,55407,1
55408,,Chasseurs,43.603296902876,3.85647429022312,1,,1
123,4111,Chasseurs,43.603296902876,3.85647429022312,0,55408,1
159,4230,Chasseurs,43.6033074525232,3.85636323597415,0,55408,1
55409,,Château d'Ô,43.6313172747826,3.84299936129932,1,,1
89,3141,Château d'Ô,43.6313172747826,3.84299936129932,0,55409,1
245,7104,Château d'Ô,43.6319278012724,3.84240900812595,0,55409,1
300,7231,Château d'Ô,43.6312910042157,3.84294916203496,0,55409,1
1136,41113,Château d'Ô,43.6314418794986,3.84308928447609,0,55409,1
1181,41243,Château d'Ô,43.6314152645895,3.8430638291649,0,55409,1
55410,,Cheng-Du,43.59398441562,3.84293044891825,1,,1
118,4102,Cheng-Du,43.59398441562,3.84293044891825,0,55410,1
164,4239,Cheng-Du,43.593275572876,3.84348070626986,0,55410,1
55411,,Cimetière Saint-Étienne,43.6150021543412,3.93564015498458,1,,1
502,12119,Cimetière Saint-Étienne,43.6150021543412,3.93564015498458,0,55411,1
509,12202,Cimetière Saint-Étienne,43.6148946865643,3.93561239984086,0,55411,1
55412,,Cinq Chalets,43.6085913727849,3.89879046096751,1,,1
363,9147,Cinq Chalets,43.6085913727849,3.89879046096751,0,55412,1
371,9207,Cinq Chalets,43.6085913727849,3.89879046096751,0,55412,1
55413,,Cinsaults,43.6205959909306,3.85689750790535,1,,1
77,3124,Cinsaults,43.6205959909306,3.85689750790535,0,55413,1
96,3207,Cinsaults,43.6205225363066,3.85700692117867,0,55413,1
55414,,Cité de l'Arme,43.5932613146835,3.889614462303,1,,1
67,3108,Cité de l'Arme,43.5932613146835,3.889614462303,0,55414,1
106,3220,Cité de l'Arme,43.5936084648385,3.88922810398087,0,55414,1
55415,,Cité Gély,43.6048637001943,3.85948498523428,1,,1
124,4112,Cité Gély,43.6048637001943,3.85948498523428,0,55415,1
158,4229,Cité Gély,43.6046636307651,3.85900955998146,0,55415,1
55416,,Cité Mion,43.6013328469984,3.88467548797399,1,,1
71,3112,Cité Mion,43.6013328469984,3.88467548797399,0,55416,1
102,3216,Cité Mion,43.6004604846151,3.88470133099128,0,55416,1
55417,,Cité Roger,43.6203781247096,3.85832712134956,1,,1
251,7111,Cité Roger,43.6203781247096,3.85832712134956,0,55417,1
292,7219,Cité Roger,43.6203929662818,3.85855025330807,0,55417,1
55418,,Cité Valette,43.6014644725049,3.85188570320761,1,,1
121,4109,Cité Valette,43.6014644725049,3.85188570320761,0,55418,1
161,4232,Cité Valette,43.6015451751709,3.85190021372498,0,55418,1
55419,,Claret,43.6057879422227,3.8621570367761,1,,1
125,4113,Claret,43.6057879422227,3.8621570367761,0,55419,1
157,4228,Claret,43.6057905576391,3.86197154012588,0,55419,1
55420,,Clolus,43.6287845637636,3.88110038986704,1,,1
472,11114,Clolus,43.6287845637636,3.88110038986704,0,55420,1
488,11209,Clolus,43.6284943529922,3.88127818213281,0,55420,1
55421,,CNRS,43.638669057151,3.86557310803822,1,,1
177,5126,CNRS,43.638669057151,3.86557310803822,0,55421,1
193,5205,CNRS,43.6385233517366,3.86570536659303,0,55421,1
55422,,Collège Camille Claudel,43.616396600225,3.86209392082106,1,,1
252,7113,Collège Camille Claudel,43.616396600225,3.86209392082106,0,55422,1
291,7218,Collège Camille Claudel,43.616485416877,3.86217053335742,0,55422,1
55423,,Collège des Aiguerelles,43.5982946221507,3.89092638121644,1,,1
307,8104,Collège des Aiguerelles,43.5982946221507,3.89092638121644,0,55423,1
337,8221,Collège des Aiguerelles,43.5975669477921,3.89214352677955,0,55423,1
55424,,Collège Marcel Pagnol,43.5974251903495,3.84566817422767,1,,1
135,4143,Collège Marcel Pagnol,43.5974251903495,3.84566817422767,0,55424,1
165,4242,Collège Marcel Pagnol,43.5969648066472,3.84516124965975,0,55424,1
55425,,Colverts,43.6137694888596,3.89816495391895,1,,1
349,9123,Colverts,43.6137694888596,3.89816495391895,0,55425,1
369,9205,Colverts,43.6137074779732,3.89810139405042,0,55425,1
55426,,Comédie,43.6083711439975,3.87968246864816,1,,1
1146,41133,Comédie,43.6083711439975,3.87968246864816,0,55426,1
1171,41223,Comédie,43.6083614522908,3.87973169370189,0,55426,1
55427,,Comté de Nice,43.6386066114908,3.81176365839483,1,,1
19,1133,Comté de Nice,43.6386066114908,3.81176365839483,0,55427,1
28,1203,Comté de Nice,43.6389199089943,3.81120235862203,0,55427,1
55428,,Comté de Toulouse,43.6369937570219,3.81927240157593,1,,1
15,1127,Comté de Toulouse,43.6369937570219,3.81927240157593,0,55428,1
34,1210,Comté de Toulouse,43.6367838417469,3.81884610961854,0,55428,1
55429,,Coquelicots,43.5977822668519,3.88024998820092,1,,1
516,12209,Coquelicots,43.5977822668519,3.88024998820092,0,55429,1
55430,,Corse,43.6402202086811,3.81077793890056,1,,1
18,1132,Corse,43.6402202086811,3.81077793890056,0,55430,1
29,1204,Corse,43.6406702650638,3.81139610551269,0,55430,1
55431,,Corum,43.6144112236254,3.8822707505569,1,,1
133,4141,Corum,43.6144112236254,3.8822707505569,0,55431,1
1145,41131,Corum,43.6142538878797,3.88195716825633,0,55431,1
1172,41225,Corum,43.6143069220478,3.88202046807643,0,55431,1
1206,42141,Corum,43.6143004086941,3.88184706980008,0,55431,1
1232,42229,Corum,43.6142642871554,3.8818584656304,0,55431,1
55432,,Craponne,43.6061963367803,3.86761126860044,1,,1
540,15105,Craponne,43.6061963367803,3.86761126860044,0,55432,1
55433,,Croix d'Argent,43.5923683239865,3.86648631655454,1,,1
1195,42115,Croix d'Argent,43.5923683239865,3.86648631655454,0,55433,1
1243,42255,Croix d'Argent,43.5923690234347,3.86643686245552,0,55433,1
55434,,Croix de Lavit,43.6394858796913,3.83934045235758,1,,1
796,24124,Croix de Lavit,43.6394858796913,3.83934045235758,0,55434,1
812,24224,Croix de Lavit,43.6393870282479,3.8393378507251,0,55434,1
55435,,Croix des Rosiers,43.6106736505957,3.83092421343876,1,,1
266,7128,Croix des Rosiers,43.6106736505957,3.83092421343876,0,55435,1
277,7203,Croix des Rosiers,43.6108871668368,3.83043491439047,0,55435,1
55436,,Croix du Capitaine,43.6020847950035,3.86657331709502,1,,1
287,7214,Croix du Capitaine,43.6020847950035,3.86657331709502,0,55436,1
55437,,Demeter,43.5830271740062,3.87227096555045,1,,1
506,12131,Demeter,43.5830271740062,3.87227096555045,0,55437,1
524,12228,Demeter,43.5834956764964,3.87219699035884,0,55437,1
55438,,Descartes,43.5966835558757,3.88353524757264,1,,1
518,12211,Descartes,43.5966835558757,3.88353524757264,0,55438,1
55440,,Doria,43.612493581044,3.86792851848614,1,,1
289,7216,Doria,43.612493581044,3.86792851848614,0,55440,1
55441,,Du Guesclin,43.6071156106586,3.88324864623093,1,,1
1148,41138,Du Guesclin,43.6071156106586,3.88324864623093,0,55441,1
1169,41218,Du Guesclin,43.6071251271782,3.88321178951546,0,55441,1
55442,,École d'Architecture,43.6377261295196,3.85912366565802,1,,1
222,6119,École d'Architecture,43.6377261295196,3.85912366565802,0,55442,1
230,6204,École d'Architecture,43.6374032491893,3.85970919747395,0,55442,1
55443,,Écossais,43.6373838835043,3.85980770441427,1,,1
221,6118,Écossais,43.6373838835043,3.85980770441427,0,55443,1
55444,,Érables,43.6149952618542,3.8569092924624,1,,1
344,9115,Érables,43.6149952618542,3.8569092924624,0,55444,1
377,9213,Érables,43.614911604712,3.85710503483649,0,55444,1
55445,,Ernest Renan,43.6154554066865,3.88531808174664,1,,1
310,8110,Ernest Renan,43.6154554066865,3.88531808174664,0,55445,1
333,8214,Ernest Renan,43.6154388503513,3.88521864675839,0,55445,1
55446,,Espérance,43.6141125001356,3.84998173280646,1,,1
341,9112,Espérance,43.6141125001356,3.84998173280646,0,55446,1
380,9216,Espérance,43.6143648149583,3.84929553416725,0,55446,1
55447,,Estanove,43.5977309307216,3.84823669591361,1,,1
211,6102,Estanove,43.5977309307216,3.84823669591361,0,55447,1
240,6220,Estanove,43.5979291452278,3.84820483184196,0,55447,1
55448,,Estragon,43.6186897221808,3.88796719199086,1,,1
312,8112,Estragon,43.6186897221808,3.88796719199086,0,55448,1
331,8212,Estragon,43.6185938877927,3.88775423180446,0,55448,1
55449,,Étoile,43.6052264621904,3.85478131856996,1,,1
259,7120,Étoile,43.6052264621904,3.85478131856996,0,55449,1
284,7211,Étoile,43.6051452390963,3.8548039020248,0,55449,1
55450,,Ettore Bugatti,43.5784666020343,3.86676956612702,1,,1
429,10162,Ettore Bugatti,43.5784666020343,3.86676956612702,0,55450,1
448,10232,Ettore Bugatti,43.5785317776589,3.86661056325457,0,55450,1
55451,,Eugène Bataillon,43.6314787970079,3.86099924989302,1,,1
219,6116,Eugène Bataillon,43.6314787970079,3.86099924989302,0,55451,1
232,6206,Eugène Bataillon,43.6317126897647,3.86034952784365,0,55451,1
55452,,Eurêka,43.6180002968696,3.91265907079507,1,,1
503,12124,Eurêka,43.6180002968696,3.91265907079507,0,55452,1
522,12222,Eurêka,43.6178867188952,3.91243320698787,0,55452,1
55453,,Euromédecine,43.6388125036604,3.82757584744842,1,,1
54,2202,Euromédecine,43.6388125036604,3.82757584744842,0,55453,1
794,24122,Euromédecine,43.6396836365219,3.82829178211235,0,55453,1
807,24211,Euromédecine,43.6389507291512,3.82928764626628,0,55453,1
1134,41109,Euromédecine,43.6389727270998,3.82769143492461,0,55453,1
1183,41247,Euromédecine,43.638999857086,3.82767976521226,0,55453,1
55454,,Évariste Galois,43.609269176775,3.9121831151654,1,,1
357,9139,Évariste Galois,43.609269176775,3.9121831151654,0,55454,1
512,12205,Évariste Galois,43.6090259907386,3.91283212152562,0,55454,1
55455,,Fac de Lettres,43.6301202658164,3.86998536762087,1,,1
175,5124,Fac de Lettres,43.6301202658164,3.86998536762087,0,55455,1
195,5207,Fac de Lettres,43.6304333375576,3.86946158621049,0,55455,1
55456,,Fac de Pharmacie,43.6236310097913,3.86161890664129,1,,1
401,10111,Fac de Pharmacie,43.6236310097913,3.86161890664129,0,55456,1
444,10224,Fac de Pharmacie,43.624631732674,3.86332865328646,0,55456,1
55457,,Figairasse,43.6071932322163,3.85042937597188,1,,1
260,7121,Figairasse,43.6071932322163,3.85042937597188,0,55457,1
283,7210,Figairasse,43.6070477218546,3.85054923351732,0,55457,1
55458,,Figuerolles,43.6064502168869,3.86427783378151,1,,1
156,4227,Figuerolles,43.6064502168869,3.86427783378151,0,55458,1
543,15216,Figuerolles,43.6064026664479,3.86446213082698,0,55458,1
55459,,Font Couverte,43.5933485674699,3.85176943315045,1,,1
213,6104,Font Couverte,43.5933485674699,3.85176943315045,0,55459,1
238,6218,Font Couverte,43.5935849781639,3.85157780704473,0,55459,1
55460,,Font Trouvé,43.6269273812758,3.8477224389748,1,,1
247,7107,Font Trouvé,43.6269273812758,3.8477224389748,0,55460,1
297,7225,Font Trouvé,43.627033836132,3.84782426104482,0,55460,1
55461,,Foyer des Aubes,43.6184591455252,3.89463047977174,1,,1
315,8118,Foyer des Aubes,43.6184591455252,3.89463047977174,0,55461,1
327,8206,Foyer des Aubes,43.6185005146602,3.89487908731948,0,55461,1
55462,,François Couperin,43.6127220678064,3.90283795378972,1,,1
469,11104,François Couperin,43.6127220678064,3.90283795378972,0,55462,1
491,11219,François Couperin,43.612882419269,3.90355997076415,0,55462,1
55463,,François Dezeuze,43.6086800917722,3.84566856385133,1,,1
261,7122,François Dezeuze,43.6086800917722,3.84566856385133,0,55463,1
282,7209,François Dezeuze,43.608595951492,3.84654472896969,0,55463,1
55464,,Françoise,43.6199568052202,3.89113229456896,1,,1
329,8210,Françoise,43.6199568052202,3.89113229456896,0,55464,1
537,14110,Françoise,43.619945686636,3.89128048302267,0,55464,1
55465,,Frédéric Bazille,43.6027140669189,3.88049457496515,1,,1
547,16206,Frédéric Bazille,43.6027140669189,3.88049457496515,0,55465,1
55466,,Frédéric Fabrège,43.5973220743467,3.88665723826851,1,,1
69,3110,Frédéric Fabrège,43.5973220743467,3.88665723826851,0,55466,1
104,3218,Frédéric Fabrège,43.5973698394189,3.88646062445717,0,55466,1
55467,,Frédéric Peyson,43.6025294161159,3.8802050647848,1,,1
513,12206,Frédéric Peyson,43.6025294161159,3.8802050647848,0,55467,1
55468,,Galéra,43.6365896801354,3.83620694010024,1,,1
792,24118,Galéra,43.6365896801354,3.83620694010024,0,55468,1
809,24218,Galéra,43.6365081161518,3.83625430874425,0,55468,1
55469,,Gambetta,43.6066567276748,3.87191645156823,1,,1
7,1104,Gambetta,43.6066567276748,3.87191645156823,0,55469,1
42,1234,Gambetta,43.6072608273034,3.87052234193997,0,55469,1
55470,,Garcia Lorca,43.5911310176648,3.89022443834104,1,,1
66,3107,Garcia Lorca,43.5911310176648,3.89022443834104,0,55470,1
107,3221,Garcia Lorca,43.5908813615668,3.89008160309153,0,55470,1
1265,43137,Garcia Lorca,43.5910407295796,3.89087748719573,0,55470,1
1282,43221,Garcia Lorca,43.5910673324132,3.89090294678733,0,55470,1
55471,,Gardioles,43.6250770287142,3.85082916624368,1,,1
248,7108,Gardioles,43.6250770287142,3.85082916624368,0,55471,1
295,7223,Gardioles,43.6247101114775,3.85199507880577,0,55471,1
55472,,Gare Saint-Roch,43.6050161315019,3.87918360718005,1,,1
1,17,Gare Saint-Roch,43.6050161315019,3.87918360718005,0,55472,1
2,18,Gare Saint-Roch,43.604620567964,3.87855438163522,0,55472,1
4,21,Gare Saint-Roch,43.6041046569465,3.87816933372906,0,55472,1
1147,41135,Gare Saint-Roch,43.6057394168241,3.8801557150493,0,55472,1
1170,41221,Gare Saint-Roch,43.6057660224829,3.88018117619871,0,55472,1
1262,43127,Gare Saint-Roch,43.605351081248,3.87965038044627,0,55472,1
1285,43231,Gare Saint-Roch,43.6052434235599,3.87963510162042,0,55472,1
55473,,Garigliano,43.6187964617273,3.89742383610729,1,,1
316,8119,Garigliano,43.6187964617273,3.89742383610729,0,55473,1
326,8205,Garigliano,43.6186104269434,3.8972331425441,0,55473,1
55474,,Garosud (Jeune Parque),43.5810109320647,3.86928610492433,1,,1
180,5131,Garosud (Jeune Parque),43.5810109320647,3.86928610492433,0,55474,1
181,5132,Garosud (Jeune Parque),43.5806255840552,3.86920157700223,0,55474,1
466,10260,Garosud (Jeune Parque),43.5810045736305,3.86910044808691,0,55474,1
55475,,Gascogne,43.6343243200791,3.86002314517298,1,,1
220,6117,Gascogne,43.6343243200791,3.86002314517298,0,55475,1
231,6205,Gascogne,43.63438879211,3.85991346959803,0,55475,1
55476,,Gémeaux,43.6332439804941,3.82262820353059,1,,1
12,1124,Gémeaux,43.6332439804941,3.82262820353059,0,55476,1
37,1213,Gémeaux,43.6319370486764,3.82222289456781,0,55476,1
55477,,Georges Brassens,43.5956976021853,3.86244423762293,1,,1
226,6126,Georges Brassens,43.5956976021853,3.86244423762293,0,55477,1
242,6226,Georges Brassens,43.5958769762589,3.86247376554408,0,55477,1
55478,,Georges Danton,43.5996429627203,3.84327754641707,1,,1
120,4106,Georges Danton,43.5996429627203,3.84327754641707,0,55478,1
162,4235,Georges Danton,43.5994607952854,3.84280269517864,0,55478,1
55479,,Georges Frêche - Hôtel de Ville,43.5993167421199,3.89486304181729,1,,1
1267,43141,Georges Frêche - Hôtel de Ville,43.5993167421199,3.89486304181729,0,55479,1
1280,43217,Georges Frêche - Hôtel de Ville,43.5993528646136,3.89485165719292,0,55479,1
55480,,Georges Méliès,43.6066844481333,3.92296160350557,1,,1
359,9141,Georges Méliès,43.6066844481333,3.92296160350557,0,55480,1
392,9241,Georges Méliès,43.6067940942977,3.92284093319964,0,55480,1
55481,,Glycines,43.6118862819209,3.86382933605826,1,,1
347,9118,Glycines,43.6118862819209,3.86382933605826,0,55481,1
374,9210,Glycines,43.6120030178798,3.86320146212474,0,55481,1
55482,,Goélands,43.6161415058957,3.90322868068915,1,,1
406,10122,Goélands,43.6161415058957,3.90322868068915,0,55482,1
446,10230,Goélands,43.6165737385606,3.90317866806057,0,55482,1
55483,,Gouara,43.6030643418636,3.86277705922043,1,,1
257,7118,Gouara,43.6030643418636,3.86277705922043,0,55483,1
286,7213,Gouara,43.6030384299099,3.86270214400029,0,55483,1
55484,,Grammont,43.6141228044854,3.93065391429186,1,,1
508,12201,Grammont,43.6141228044854,3.93065391429186,0,55484,1
55485,,Grèzes,43.60964016409,3.82764338704021,1,,1
267,7129,Grèzes,43.60964016409,3.82764338704021,0,55485,1
276,7202,Grèzes,43.6097283229193,3.82776940652927,0,55485,1
55486,,Guglielmo Marconi,43.6114517263899,3.91231754982244,1,,1
407,10123,Guglielmo Marconi,43.6114517263899,3.91231754982244,0,55486,1
445,10229,Guglielmo Marconi,43.61186418833,3.91239079037532,0,55486,1
55487,,Guillaume Janvier,43.5976454091688,3.864561933285,1,,1
217,6109,Guillaume Janvier,43.5976454091688,3.864561933285,0,55487,1
234,6212,Guillaume Janvier,43.5970985693637,3.86381752569076,0,55487,1
55488,,Gustave Eiffel,43.6092551368515,3.83274287185258,1,,1
265,7127,Gustave Eiffel,43.6092551368515,3.83274287185258,0,55488,1
278,7204,Gustave Eiffel,43.6087780994685,3.83343556300822,0,55488,1
55489,,Halles de la Paillade,43.6274692432718,3.81762667941802,1,,1
22,1137,Halles de la Paillade,43.6274692432718,3.81762667941802,0,55489,1
45,1240,Halles de la Paillade,43.6278203923936,3.81758628283255,0,55489,1
1131,41103,Halles de la Paillade,43.6275697871031,3.81750552997029,0,55489,1
1186,41253,Halles de la Paillade,43.6275702949051,3.81746841608473,0,55489,1
55490,,Hauts de Massane,43.6361661213345,3.82259285229184,1,,1
13,1125,Hauts de Massane,43.6361661213345,3.82259285229184,0,55490,1
36,1212,Hauts de Massane,43.636127627359,3.82277751386226,0,55490,1
1133,41107,Hauts de Massane,43.6363704329782,3.82277145576433,0,55490,1
1184,41249,Hauts de Massane,43.6363711124574,3.82272196301699,0,55490,1
55491,,Hélios,43.600995894383,3.88560648804037,1,,1
334,8218,Hélios,43.600995894383,3.88560648804037,0,55491,1
55492,,Henri Dunant,43.6268803466524,3.86897019889761,1,,1
400,10110,Henri Dunant,43.6268803466524,3.86897019889761,0,55492,1
435,10210,Henri Dunant,43.6267977179585,3.86909173851235,0,55492,1
55493,,Henri Marès,43.620194723618,3.85410263205712,1,,1
78,3125,Henri Marès,43.620194723618,3.85410263205712,0,55493,1
95,3206,Henri Marès,43.6201193636401,3.85434811343532,0,55493,1
55494,,Henri René,43.6031428946409,3.8819411512056,1,,1
322,8132,Henri René,43.6031428946409,3.8819411512056,0,55494,1
55495,,Hippolyte Rech,43.6201474515514,3.86512679044356,1,,1
185,5138,Hippolyte Rech,43.6201474515514,3.86512679044356,0,55495,1
205,5238,Hippolyte Rech,43.6196920205441,3.86554769658461,0,55495,1
55496,,Hôpital Lapeyronie,43.6316510467744,3.85257532406546,1,,1
1138,41117,Hôpital Lapeyronie,43.6316510467744,3.85257532406546,0,55496,1
1179,41239,Hôpital Lapeyronie,43.6316686730378,3.85260054534845,0,55496,1
55497,,Hortus,43.6432228158704,3.86012441140254,1,,1
182,5133,Hortus,43.6432228158704,3.86012441140254,0,55497,1
200,5230,Hortus,43.6429753736315,3.85982070888433,0,55497,1
55498,,Hôtel du Département,43.6218357649429,3.83503997068151,1,,1
268,7132,Hôtel du Département,43.6218357649429,3.83503997068151,0,55498,1
1253,43109,Hôtel du Département,43.6218017033289,3.83490295770799,0,55498,1
1294,43249,Hôtel du Département,43.6220241364681,3.83506966179401,0,55498,1
55499,,Industrie,43.5845293518668,3.88167280269559,1,,1
62,3103,Industrie,43.5845293518668,3.88167280269559,0,55499,1
111,3225,Industrie,43.5847534726565,3.88171596178495,0,55499,1
55500,,Iris,43.599039221315,3.88539263428528,1,,1
70,3111,Iris,43.599039221315,3.88539263428528,0,55500,1
103,3217,Iris,43.5987608287923,3.88537271818543,0,55500,1
55501,,Irissou,43.5939637389074,3.85277522587098,1,,1
555,17135,Irissou,43.5939637389074,3.85277522587098,0,55501,1
563,17235,Irissou,43.59402438899,3.85293762595686,0,55501,1
55502,,Jacques Prévert,43.6423505917839,3.81408858792809,1,,1
17,1131,Jacques Prévert,43.6423505917839,3.81408858792809,0,55502,1
30,1205,Jacques Prévert,43.6422600505602,3.81413576040141,0,55502,1
55503,,Jasse de Maurin,43.579538963905,3.86276714765963,1,,1
412,10138,Jasse de Maurin,43.579538963905,3.86276714765963,0,55503,1
462,10254,Jasse de Maurin,43.579753058653,3.86288415370522,0,55503,1
55504,,Jean Bart,43.62559219488,3.83772496921458,1,,1
270,7137,Jean Bart,43.62559219488,3.83772496921458,0,55504,1
55505,,Jean Calvin,43.6186650834846,3.84584575486636,1,,1
404,10114,Jean Calvin,43.6186650834846,3.84584575486636,0,55505,1
432,10205,Jean Calvin,43.6185916401463,3.8459551786553,0,55505,1
55506,,Jean Mermoz,43.6126025565135,3.88929896484559,1,,1
126,4116,Jean Mermoz,43.6126025565135,3.88929896484559,0,55506,1
55507,,Jean Mirailhet,43.5961561324216,3.89210511836579,1,,1
306,8103,Jean Mirailhet,43.5961561324216,3.89210511836579,0,55507,1
408,10125,Jean Mirailhet,43.5968601649,3.89253247043921,0,55507,1
55508,,Jean Vachet,43.5923482992442,3.88495154836371,1,,1
507,12134,Jean Vachet,43.5923482992442,3.88495154836371,0,55508,1
527,12234,Jean Vachet,43.5928278831133,3.88536033119258,0,55508,1
55509,,Jeu de Mail des Abbés,43.6202104463057,3.8840982200545,1,,1
1208,42145,Jeu de Mail des Abbés,43.6202104463057,3.8840982200545,0,55509,1
1230,42225,Jeu de Mail des Abbés,43.6202111538231,3.88404874205847,0,55509,1
55510,,Jules Guesde,43.6114734587923,3.84648469366853,1,,1
1256,43115,Jules Guesde,43.6114734587923,3.84648469366853,0,55510,1
1291,43243,Jules Guesde,43.6115073328732,3.84663405649798,0,55510,1
55511,,La Gaillarde,43.6162513784556,3.857722246641,1,,1
88,3140,La Gaillarde,43.6162513784556,3.857722246641,0,55511,1
116,3231,La Gaillarde,43.616282918047,3.85867583532559,0,55511,1
55512,,La Martelle,43.6066435507389,3.82656311214596,1,,1
275,7201,La Martelle,43.6066435507389,3.82656311214596,0,55512,1
1377,7131,La Martelle,43.6073176935561,3.82656832293054,0,55512,1
55513,,La Pile,43.6173183294404,3.86811973689509,1,,1
74,3119,La Pile,43.6173183294404,3.86811973689509,0,55513,1
99,3211,La Pile,43.6171246571686,3.86782995178913,0,55513,1
55514,,La Rauze,43.5934705270149,3.8956930946039,1,,1
1266,43139,La Rauze,43.5934705270149,3.8956930946039,0,55514,1
1281,43219,La Rauze,43.5935143880322,3.89576850263152,0,55514,1
55515,,La Source,43.6210370161339,3.85685974961973,1,,1
250,7110,La Source,43.6210370161339,3.85685974961973,0,55515,1
293,7221,La Source,43.6216600735185,3.85602249207943,0,55515,1
55516,,Lagoya,43.6121904005506,3.90602788384772,1,,1
415,10146,Lagoya,43.6121904005506,3.90602788384772,0,55516,1
457,10249,Lagoya,43.6121283943593,3.90596431719901,0,55516,1
55517,,Las Cazes,43.616103313823,3.8471143819564,1,,1
340,9111,Las Cazes,43.616103313823,3.8471143819564,0,55517,1
381,9217,Las Cazes,43.6165324032967,3.8466431672768,0,55517,1
55518,,Las Rébès,43.6208021348586,3.84924328826401,1,,1
80,3129,Las Rébès,43.6208021348586,3.84924328826401,0,55518,1
93,3204,Las Rébès,43.6207307627791,3.84920427516281,0,55518,1
55519,,Las Sorbes,43.6151585360101,3.85488444807347,1,,1
343,9114,Las Sorbes,43.6151585360101,3.85488444807347,0,55519,1
378,9214,Las Sorbes,43.6152734487993,3.85502360694067,0,55519,1
55520,,Lavalette,43.6377348431733,3.86933577192312,1,,1
187,5161,Lavalette,43.6377348431733,3.86933577192312,0,55520,1
209,5284,Lavalette,43.6375575674507,3.86915772114732,0,55520,1
55521,,Lavandin,43.6003152776712,3.85178100600403,1,,1
551,17131,Lavandin,43.6003152776712,3.85178100600403,0,55521,1
1336,17231,Lavandin,43.6003152776712,3.85178100600403,0,55521,1
55522,,Le Grand M,43.5909444767773,3.85461213543406,1,,1
214,6105,Le Grand M,43.5909444767773,3.85461213543406,0,55522,1
237,6216,Le Grand M,43.5906117784029,3.85525879036367,0,55522,1
452,10244,Le Grand M,43.5911058800726,3.85464115886892,0,55522,1
55523,,Lemasson,43.5937104131978,3.87327545449656,1,,1
1197,42119,Lemasson,43.5937104131978,3.87327545449656,0,55523,1
1241,42251,Lemasson,43.5937370202297,3.87330090708024,0,55523,1
55524,,Léon Blum,43.6092604458886,3.89040820282274,1,,1
387,9234,Léon Blum,43.6092604458886,3.89040820282274,0,55524,1
1150,41141,Léon Blum,43.6089133592868,3.89016369677972,0,55524,1
1167,41215,Léon Blum,43.6089399626543,3.89018916400619,0,55524,1
55525,,Léon Cordès,43.6015907148623,3.88298774997794,1,,1
499,12112,Léon Cordès,43.6015907148623,3.88298774997794,0,55525,1
55526,,Lepic,43.6014070452941,3.86300493232419,1,,1
256,7117,Lepic,43.6014070452941,3.86300493232419,0,55526,1
55527,,Les Arceaux,43.6098956946996,3.86219250369623,1,,1
1258,43119,Les Arceaux,43.6098956946996,3.86219250369623,0,55527,1
1289,43239,Les Arceaux,43.6099793607256,3.86199678596641,0,55527,1
55528,,Les Aubes,43.6136788353833,3.88884567796858,1,,1
536,14109,Les Aubes,43.6136788353833,3.88884567796858,0,55528,1
539,14209,Les Aubes,43.6135815838487,3.8887316793859,0,55528,1
1205,42139,Les Aubes,43.6139711840498,3.88851955268758,0,55528,1
1233,42231,Les Aubes,43.6139548080509,3.88840775122509,0,55528,1
55529,,Les Bouisses,43.5993251472128,3.83509284038327,1,,1
273,7164,Les Bouisses,43.5993251472128,3.83509284038327,0,55529,1
274,7165,Les Bouisses,43.5985397484716,3.83533200074396,0,55529,1
303,7261,Les Bouisses,43.598754903918,3.83537475286632,0,55529,1
541,15114,Les Bouisses,43.5985036322763,3.83534342284194,0,55529,1
55530,,Les Pins,43.5909476417384,3.87348562163828,1,,1
172,5104,Les Pins,43.5909476417384,3.87348562163828,0,55530,1
873,27114,Les Pins,43.5905911844243,3.87326578138392,0,55530,1
55531,,Les Roses,43.6025606787905,3.85448781446999,1,,1
122,4110,Les Roses,43.6025606787905,3.85448781446999,0,55531,1
160,4231,Les Roses,43.6023443496639,3.85388829133743,0,55531,1
55532,,Louis Blanc,43.6147460835895,3.87833279432343,1,,1
1144,41129,Louis Blanc,43.6147460835895,3.87833279432343,0,55532,1
1173,41227,Louis Blanc,43.614736216221,3.87839439343216,0,55532,1
55533,,Louis Lépine,43.6146278792328,3.91459521937689,1,,1
355,9137,Louis Lépine,43.6146278792328,3.91459521937689,0,55533,1
388,9235,Louis Lépine,43.6147055077837,3.91482008144468,0,55533,1
55534,,Louis Ravaz,43.6201132360769,3.85221959238505,1,,1
79,3126,Louis Ravaz,43.6201132360769,3.85221959238505,0,55534,1
85,3137,Louis Ravaz,43.6197106026762,3.85144171506991,0,55534,1
94,3205,Louis Ravaz,43.6200242389031,3.85215536001648,0,55534,1
114,3229,Louis Ravaz,43.6196663635916,3.85139104547153,0,55534,1
55535,,Louvain,43.6135139246229,3.8586886623758,1,,1
345,9116,Louvain,43.6135139246229,3.8586886623758,0,55535,1
376,9212,Louvain,43.6133206890214,3.85900520415104,0,55535,1
55536,,Lucullus,43.5948043851603,3.88858031610957,1,,1
68,3109,Lucullus,43.5948043851603,3.88858031610957,0,55536,1
105,3219,Lucullus,43.5947069573776,3.88847871960681,0,55536,1
55537,,Lycée Frédéric Bazille,43.6455571577946,3.86225411739591,1,,1
190,5202,Lycée Frédéric Bazille,43.6455571577946,3.86225411739591,0,55537,1
529,13102,Lycée Frédéric Bazille,43.6449007956988,3.86226133682538,0,55537,1
532,13202,Lycée Frédéric Bazille,43.6447836226638,3.8622829647471,0,55537,1
55538,,Lycée Georges Clemenceau,43.6030474392888,3.87159678912742,1,,1
174,5119,Lycée Georges Clemenceau,43.6030474392888,3.87159678912742,0,55538,1
197,5213,Lycée Georges Clemenceau,43.6031371255808,3.87161156933615,0,55538,1
55539,,Lycée Jean Monnet,43.6239466290571,3.83451372964292,1,,1
302,7237,Lycée Jean Monnet,43.6239466290571,3.83451372964292,0,55539,1
384,9226,Lycée Jean Monnet,43.623962547191,3.83466264657354,0,55539,1
55540,,Lycée Jules Ferry,43.6086997435518,3.84102970569803,1,,1
262,7124,Lycée Jules Ferry,43.6086997435518,3.84102970569803,0,55540,1
281,7207,Lycée Jules Ferry,43.6086556719142,3.84096668680607,0,55540,1
55541,,Lycée Léonard de Vinci,43.625704956004,3.82435021158479,1,,1
269,7136,Lycée Léonard de Vinci,43.625704956004,3.82435021158479,0,55541,1
301,7236,Lycée Léonard de Vinci,43.6262092406303,3.82363319916369,0,55541,1
55542,,Maison des Sports,43.6184281957958,3.8646476966565,1,,1
75,3120,Maison des Sports,43.6184281957958,3.8646476966565,0,55542,1
98,3210,Maison des Sports,43.6183242023841,3.86437269046436,0,55542,1
55543,,Major Flandre,43.6270992583318,3.87255266260903,1,,1
399,10109,Major Flandre,43.6270992583318,3.87255266260903,0,55543,1
436,10211,Major Flandre,43.6268075361768,3.87410415341878,0,55543,1
55544,,Malbosc,43.6346185793054,3.8337787410841,1,,1
793,24121,Malbosc,43.6346185793054,3.8337787410841,0,55544,1
810,24220,Malbosc,43.6346028309388,3.83361742383144,0,55544,1
1135,41111,Malbosc,43.6345906749945,3.8331962785179,0,55544,1
1182,41245,Malbosc,43.6346081347455,3.83323386788882,0,55544,1
55545,,Marché Gare,43.5838308652102,3.88588323158732,1,,1
63,3104,Marché Gare,43.5838308652102,3.88588323158732,0,55545,1
110,3224,Marché Gare,43.5838005423851,3.88611737138837,0,55545,1
55546,,Maréchal Leclerc,43.5943315673444,3.88519082035123,1,,1
494,12106,Maréchal Leclerc,43.5943315673444,3.88519082035123,0,55546,1
526,12231,Maréchal Leclerc,43.5942887608684,3.88504123606989,0,55546,1
55547,,Marie Caizergues,43.6212240874847,3.87542641257566,1,,1
203,5234,Marie Caizergues,43.6212240874847,3.87542641257566,0,55547,1
479,11127,Marie Caizergues,43.6212869915203,3.87542810738973,0,55547,1
55548,,Marie Curie,43.6148395496496,3.83130540029117,1,,1
10,1114,Marie Curie,43.6148395496496,3.83130540029117,0,55548,1
39,1224,Marie Curie,43.6147517362541,3.83115462710913,0,55548,1
55549,,Marie Durand,43.6183195422658,3.89807899528503,1,,1
351,9125,Marie Durand,43.6183195422658,3.89807899528503,0,55549,1
367,9203,Marie Durand,43.6183673288716,3.89788231873107,0,55549,1
55550,,Martellière,43.6066999930928,3.83743887377395,1,,1
263,7125,Martellière,43.6066999930928,3.83743887377395,0,55550,1
280,7206,Martellière,43.6071827414465,3.83828043506297,0,55550,1
55551,,Mas Argelliers,43.5868091578055,3.88945148767118,1,,1
65,3106,Mas Argelliers,43.5868091578055,3.88945148767118,0,55551,1
108,3222,Mas Argelliers,43.586517765709,3.88908492645402,0,55551,1
55552,,Mas de Bagnères,43.586833365501,3.85865823725684,1,,1
424,10155,Mas de Bagnères,43.586833365501,3.85865823725684,0,55552,1
461,10253,Mas de Bagnères,43.5875279040628,3.8584912286045,0,55552,1
55553,,Mas de Bellevue,43.6364984104676,3.81276129137918,1,,1
20,1134,Mas de Bellevue,43.6364984104676,3.81276129137918,0,55553,1
27,1202,Mas de Bellevue,43.637104388689,3.81249226907531,0,55553,1
55554,,Mas de Merle,43.6045080804015,3.85728587237362,1,,1
258,7119,Mas de Merle,43.6045080804015,3.85728587237362,0,55554,1
285,7212,Mas de Merle,43.6043506212434,3.85761569208972,0,55554,1
55555,,Mas Drevon,43.5954674386514,3.86791750224146,1,,1
1196,42117,Mas Drevon,43.5954674386514,3.86791750224146,0,55555,1
1242,42253,Mas Drevon,43.5954859359917,3.86788089130808,0,55555,1
55556,,Mas Saint-Pierre,43.5821186745304,3.87988875276821,1,,1
61,3102,Mas Saint-Pierre,43.5821186745304,3.87988875276821,0,55556,1
112,3226,Mas Saint-Pierre,43.5817613397064,3.88036137573489,0,55556,1
55557,,Maurice Chauvet,43.6386436638714,3.85652395191788,1,,1
223,6120,Maurice Chauvet,43.6386436638714,3.85652395191788,0,55557,1
229,6203,Maurice Chauvet,43.6385043496043,3.85684207595449,0,55557,1
55558,,Maurice Chevalier,43.6285891671195,3.88722127849298,1,,1
394,10103,Maurice Chevalier,43.6285891671195,3.88722127849298,0,55558,1
441,10217,Maurice Chevalier,43.6282324966595,3.88764475535801,0,55558,1
55559,,Millénaire,43.6034909729201,3.90832490623178,1,,1
410,10133,Millénaire,43.6034909729201,3.90832490623178,0,55559,1
449,10233,Millénaire,43.603208990986,3.90917072592052,0,55559,1
1156,41153,Millénaire,43.6028806332787,3.91011422517616,0,55559,1
1161,41203,Millénaire,43.6029075915366,3.91011496766347,0,55559,1
55560,,Mondial 98,43.6026172384494,3.90410725317879,1,,1
1155,41151,Mondial 98,43.6026172384494,3.90410725317879,0,55560,1
1162,41205,Mondial 98,43.602644196743,3.90410799282751,0,55560,1
55561,,Monsieur Teste,43.6073852103855,3.83599705383341,1,,1
264,7126,Monsieur Teste,43.6073852103855,3.83599705383341,0,55561,1
279,7205,Monsieur Teste,43.6069758571286,3.83634507709663,0,55561,1
55562,,Montmaur,43.6411470739613,3.86325036470027,1,,1
178,5127,Montmaur,43.6411470739613,3.86325036470027,0,55562,1
192,5204,Montmaur,43.6404261480455,3.864010940994,0,55562,1
55563,,Mosson,43.6161290903821,3.81990628079244,1,,1
828,25126,Mosson,43.6161290903821,3.81990628079244,0,55563,1
1130,41101,Mosson,43.6163194996841,3.81978749280886,0,55563,1
1250,43103,Mosson,43.616223022779,3.81961176245642,0,55563,1
1297,43255,Mosson,43.616257781698,3.81969927757021,0,55563,1
1348,25127,Mosson,43.6166772569983,3.8192647291823,0,55563,1
55564,,Moularès (Hôtel de Ville),43.6007299548366,3.89535927969668,1,,1
1153,41147,Moularès (Hôtel de Ville),43.6007299548366,3.89535927969668,0,55564,1
1164,41209,Moularès (Hôtel de Ville),43.6007378719135,3.89543371634385,0,55564,1
55565,,Moulin de Gasconnet,43.6339217418846,3.87450611961657,1,,1
476,11119,Moulin de Gasconnet,43.6339217418846,3.87450611961657,0,55565,1
484,11204,Moulin de Gasconnet,43.6338309991395,3.87456556176909,0,55565,1
55566,,Muriers,43.6262060519225,3.84916365966573,1,,1
296,7224,Muriers,43.6262060519225,3.84916365966573,0,55566,1
55567,,Myrtes,43.6010747775961,3.86616279734264,1,,1
255,7116,Myrtes,43.6010747775961,3.86616279734264,0,55567,1
55568,,Nazareth,43.6216853966435,3.88027730699587,1,,1
183,5134,Nazareth,43.6216853966435,3.88027730699587,0,55568,1
201,5232,Nazareth,43.6216496279571,3.88026396564836,0,55568,1
55569,,Nouveau Saint-Roch,43.5994929707284,3.87564516827548,1,,1
1199,42123,Nouveau Saint-Roch,43.5994929707284,3.87564516827548,0,55569,1
1239,42247,Nouveau Saint-Roch,43.5995475912133,3.87559716042538,0,55569,1
55570,,Observatoire,43.606282297584,3.87675591637316,1,,1
3,20,Observatoire,43.606282297584,3.87675591637316,0,55570,1
51,2133,Observatoire,43.6064389353025,3.87648797097934,0,55570,1
1261,43125,Observatoire,43.6064472174367,3.87653767936612,0,55570,1
1286,43233,Observatoire,43.6065192829458,3.87652725063757,0,55570,1
55571,,Occitanie,43.6343581122312,3.84863696141071,1,,1
86,3138,Occitanie,43.6343581122312,3.84863696141071,0,55571,1
113,3228,Occitanie,43.6346135344989,3.84837142414812,0,55571,1
752,23130,Occitanie,43.634622866537,3.84834691659984,0,55571,1
1137,41115,Occitanie,43.6346302977529,3.84845850910512,0,55571,1
1180,41241,Occitanie,43.6346569114579,3.84848396836494,0,55571,1
1345,23238,Occitanie,43.634622866537,3.84834691659984,0,55571,1
55572,,Odysseum,43.6041206297931,3.92062653322998,1,,1
1157,41155,Odysseum,43.6041206297931,3.92062653322998,0,55572,1
1160,41201,Odysseum,43.6041288916269,3.9206762459918,0,55572,1
55573,,Ormeaux,43.6020227345539,3.83374101915566,1,,1
272,7162,Ormeaux,43.6020227345539,3.83374101915566,0,55573,1
304,7262,Ormeaux,43.6030445119191,3.83331008888538,0,55573,1
55574,,Oxford,43.6269366942563,3.82040974366735,1,,1
23,1138,Oxford,43.6269366942563,3.82040974366735,0,55574,1
585,19202,Oxford,43.6270316440033,3.8206968488678,0,55574,1
55575,,Pablo Picasso,43.5978817223193,3.90334649118577,1,,1
1268,43145,Pablo Picasso,43.5978817223193,3.90334649118577,0,55575,1
1279,43213,Pablo Picasso,43.5979421175295,3.90352132068884,0,55575,1
55576,,Paladilhe,43.612045606876,3.86718653369226,1,,1
254,7115,Paladilhe,43.612045606876,3.86718653369226,0,55576,1
373,9209,Paladilhe,43.6123429616735,3.86650163928614,0,55576,1
55577,,Palissade,43.6074262128139,3.86963603622364,1,,1
493,11224,Palissade,43.6074262128139,3.86963603622364,0,55577,1
55578,,Palombes,43.6194859845483,3.89386654377238,1,,1
314,8116,Palombes,43.6194859845483,3.89386654377238,0,55578,1
328,8208,Palombes,43.619735285097,3.89403420585313,0,55578,1
55579,,Pâquerettes,43.5996525843702,3.88147565333063,1,,1
497,12110,Pâquerettes,43.5996525843702,3.88147565333063,0,55579,1
515,12208,Pâquerettes,43.5997761130628,3.88100893891673,0,55579,1
55580,,Parc de la Lironde,43.6086414262455,3.90651185952166,1,,1
414,10145,Parc de la Lironde,43.6086414262455,3.90651185952166,0,55580,1
458,10250,Parc de la Lironde,43.6084890208617,3.90648292753765,0,55580,1
55581,,Parc Malbosc,43.6234022647185,3.83097262705072,1,,1
385,9227,Parc Malbosc,43.6234022647185,3.83097262705072,0,55581,1
55582,,Pas du Loup,43.6001236780564,3.84812682355374,1,,1
210,6101,Pas du Loup,43.6001236780564,3.84812682355374,0,55582,1
241,6221,Pas du Loup,43.6004461447968,3.84885280875692,0,55582,1
55583,,Passerines,43.5884457636266,3.8724165785087,1,,1
171,5103,Passerines,43.5884457636266,3.8724165785087,0,55583,1
874,27115,Passerines,43.5886436327481,3.87240952890941,0,55583,1
55584,,Pastourelles,43.6218341382093,3.90121925857286,1,,1
423,10154,Pastourelles,43.6218341382093,3.90121925857286,0,55584,1
460,10252,Pastourelles,43.6218355223038,3.900501564135,0,55584,1
55585,,Patrice Lumumba,43.5788486897581,3.86454168023114,1,,1
422,10153,Patrice Lumumba,43.5788486897581,3.86454168023114,0,55585,1
450,10242,Patrice Lumumba,43.5789679528847,3.86437175432447,0,55585,1
55586,,Paul Fajon,43.5951171451906,3.83775307792064,1,,1
132,4139,Paul Fajon,43.5951171451906,3.83775307792064,0,55586,1
167,4246,Paul Fajon,43.5954554673507,3.83734142738461,0,55586,1
542,15115,Paul Fajon,43.5948990743037,3.83792051027543,0,55586,1
1116,38109,Paul Fajon,43.5963502466104,3.83699385906782,0,55586,1
1125,38209,Paul Fajon,43.5962954719026,3.83705426560027,0,55586,1
55587,,Paul Painlevé,43.6111480844713,3.89853869912733,1,,1
348,9122,Paul Painlevé,43.6111480844713,3.89853869912733,0,55587,1
370,9206,Paul Painlevé,43.6105273248078,3.89857121474418,0,55587,1
55588,,Pergola,43.6176378844592,3.83955756794993,1,,1
1254,43111,Pergola,43.6176378844592,3.83955756794993,0,55588,1
1293,43247,Pergola,43.6181727167808,3.83923755077308,0,55588,1
55589,,Petit Bard,43.6146386270071,3.83543270115319,1,,1
9,1113,Petit Bard,43.6146386270071,3.83543270115319,0,55589,1
40,1225,Petit Bard,43.614571018828,3.83512160415726,0,55589,1
55590,,Peyrou,43.6107479111006,3.87185319805252,1,,1
5,106,Peyrou,43.6107479111006,3.87185319805252,0,55590,1
52,2135,Peyrou,43.6109718648462,3.87190870595334,0,55590,1
55591,,Pic Saint-Loup,43.639183670985,3.85455779606223,1,,1
224,6121,Pic Saint-Loup,43.639183670985,3.85455779606223,0,55591,1
228,6202,Pic Saint-Loup,43.6391238886662,3.85433339733278,0,55591,1
55592,,Pierre Cardenal,43.6387142508484,3.81902000249718,1,,1
25,1142,Pierre Cardenal,43.6387142508484,3.81902000249718,0,55592,1
33,1209,Pierre Cardenal,43.6379624319256,3.81877768092331,0,55592,1
55593,,Pierre d'Adhémar,43.62216921338,3.86391868361458,1,,1
430,10163,Pierre d'Adhémar,43.62216921338,3.86391868361458,0,55593,1
467,10263,Pierre d'Adhémar,43.622113025849,3.86407805141269,0,55593,1
55594,,Pierre de Coubertin,43.6375431583835,3.81459546418046,1,,1
21,1135,Pierre de Coubertin,43.6375431583835,3.81459546418046,0,55594,1
24,1141,Pierre de Coubertin,43.6377403553585,3.81463770211783,0,55594,1
55595,,Pierre Laroque,43.6215280666476,3.90435403112238,1,,1
427,10159,Pierre Laroque,43.6215280666476,3.90435403112238,0,55595,1
465,10259,Pierre Laroque,43.6211873068295,3.90429517913205,0,55595,1
55596,,Pierre Rouge,43.6230637530555,3.88259154399914,1,,1
471,11113,Pierre Rouge,43.6230637530555,3.88259154399914,0,55596,1
489,11210,Pierre Rouge,43.6229384751649,3.88255102820205,0,55596,1
55597,,Pierre Viala,43.6174253755504,3.8541404197219,1,,1
84,3136,Pierre Viala,43.6174253755504,3.8541404197219,0,55597,1
115,3230,Pierre Viala,43.6165864898749,3.85498427142864,0,55597,1
55598,,Pilory,43.6193982975347,3.83188253488683,1,,1
1252,43107,Pilory,43.6193982975347,3.83188253488683,0,55598,1
1295,43251,Pilory,43.61957443555,3.83214699993398,0,55598,1
55599,,Pinsons,43.616954292775,3.88611351188639,1,,1
311,8111,Pinsons,43.616954292775,3.88611351188639,0,55599,1
332,8213,Pinsons,43.6171944414844,3.88629325771688,0,55599,1
55600,,Pinville,43.6140373638396,3.90450725688734,1,,1
416,10147,Pinville,43.6140373638396,3.90450725688734,0,55600,1
456,10248,Pinville,43.6138396679921,3.90450183034903,0,55600,1
468,11103,Pinville,43.6138650561147,3.90585118228076,0,55600,1
492,11220,Pinville,43.6139491773105,3.90624942940283,0,55600,1
55601,,Pioch de Boutonnet,43.6337981064534,3.8775104522385,1,,1
475,11117,Pioch de Boutonnet,43.6337981064534,3.8775104522385,0,55601,1
485,11206,Pioch de Boutonnet,43.6339175711024,3.87732801737275,0,55601,1
55602,,Pitot,43.612090811667,3.87034272852489,1,,1
288,7215,Pitot,43.612090811667,3.87034272852489,0,55602,1
55603,,Place Albert 1er,43.6164493475913,3.87424603509102,1,,1
1143,41127,Place Albert 1er,43.6164493475913,3.87424603509102,0,55603,1
1174,41229,Place Albert 1er,43.6164038890181,3.87428193165593,0,55603,1
55604,,Place Carnot,43.6032691482583,3.88380015880947,1,,1
321,8131,Place Carnot,43.6032691482583,3.88380015880947,0,55604,1
1201,42129,Place Carnot,43.6038310309685,3.88411227333693,0,55604,1
1237,42241,Place Carnot,43.6038306772025,3.88413700523998,0,55604,1
55605,,Place de France,43.6037079078781,3.91503584923752,1,,1
362,9146,Place de France,43.6037079078781,3.91503584923752,0,55605,1
393,9246,Place de France,43.6036870488652,3.91523320587043,0,55605,1
1158,41161,Place de France,43.603724580047,3.91574144647471,0,55605,1
1187,41261,Place de France,43.6037518992763,3.91571745995785,0,55605,1
55606,,Place de l'Europe,43.6082966506284,3.89429145662823,1,,1
365,9149,Place de l'Europe,43.6082966506284,3.89429145662823,0,55606,1
386,9232,Place de l'Europe,43.6074715265701,3.89415761386362,0,55606,1
573,18124,Place de l'Europe,43.6081812548828,3.89418933635568,0,55606,1
1151,41143,Place de l'Europe,43.6071866399633,3.89396427404087,0,55606,1
1166,41213,Place de l'Europe,43.6073039939688,3.89393035868125,0,55606,1
55607,,Place de Strasbourg,43.6031790655546,3.88003705842674,1,,1
72,3115,Place de Strasbourg,43.6031790655546,3.88003705842674,0,55607,1
55608,,Place d'Italie,43.6417884884026,3.81838185197743,1,,1
16,1130,Place d'Italie,43.6417884884026,3.81838185197743,0,55608,1
31,1206,Place d'Italie,43.6418607195956,3.81835896897869,0,55608,1
55609,,Place du 8 Mai,43.5999475517205,3.86704798913779,1,,1
227,6127,Place du 8 Mai,43.5999475517205,3.86704798913779,0,55609,1
243,6227,Place du 8 Mai,43.599586464867,3.86651878660143,0,55609,1
55610,,Plan Cabanes,43.6081693355143,3.86857964595194,1,,1
545,15218,Plan Cabanes,43.6081693355143,3.86857964595194,0,55610,1
1259,43121,Plan Cabanes,43.608637436434,3.86789938195901,0,55610,1
1288,43237,Plan Cabanes,43.6085719073046,3.868083201233,0,55610,1
55611,,Plan des 4 Seigneurs,43.640844025545,3.85795656017386,1,,1
225,6123,Plan des 4 Seigneurs,43.640844025545,3.85795656017386,0,55611,1
779,23232,Plan des 4 Seigneurs,43.6408110357181,3.85774524364199,0,55611,1
55612,,Pléiade,43.628474045766,3.84575845794988,1,,1
246,7106,Pléiade,43.628474045766,3.84575845794988,0,55612,1
298,7226,Pléiade,43.6284453614805,3.84588145952179,0,55612,1
55613,,Pompignane,43.6122792097737,3.89490733504466,1,,1
1204,42137,Pompignane,43.6122792097737,3.89490733504466,0,55613,1
1234,42233,Pompignane,43.6124501254217,3.89489962500101,0,55613,1
55614,,Port Marianne,43.6015763562532,3.89962538372382,1,,1
1154,41149,Port Marianne,43.6015763562532,3.89962538372382,0,55614,1
1163,41207,Port Marianne,43.6015648147091,3.89917973718665,0,55614,1
55615,,Porto,43.6003857852008,3.87986264047073,1,,1
498,12111,Porto,43.6003857852008,3.87986264047073,0,55615,1
514,12207,Porto,43.6003323975579,3.87982408849627,0,55615,1
55616,,Pous de la Sers,43.6191236326195,3.86186977958743,1,,1
76,3121,Pous de la Sers,43.6191236326195,3.86186977958743,0,55616,1
97,3209,Pous de la Sers,43.6192676653111,3.86121780296459,0,55616,1
55617,,Primevères,43.5981873165172,3.88147314342496,1,,1
496,12109,Primevères,43.5981873165172,3.88147314342496,0,55617,1
55618,,Puccini,43.594943865131,3.8540381052573,1,,1
554,17134,Puccini,43.594943865131,3.8540381052573,0,55618,1
562,17234,Puccini,43.5949870614243,3.85416293975215,0,55618,1
55619,,Puech Villa,43.6400820065708,3.82939149156508,1,,1
50,2129,Puech Villa,43.6400820065708,3.82939149156508,0,55619,1
55,2203,Puech Villa,43.6397089517698,3.82971595378058,0,55619,1
55620,,Raimbaud d'Orange,43.6374854721222,3.82078288832957,1,,1
14,1126,Raimbaud d'Orange,43.6374854721222,3.82078288832957,0,55620,1
35,1211,Raimbaud d'Orange,43.6374140824417,3.82139992419312,0,55620,1
55621,,Razeteurs,43.5956233398826,3.88412499227601,1,,1
519,12212,Razeteurs,43.5956233398826,3.88412499227601,0,55621,1
55622,,Renaudel,43.614640096864,3.8281698327723,1,,1
11,1115,Renaudel,43.614640096864,3.8281698327723,0,55622,1
38,1223,Renaudel,43.6146038104899,3.8281936310748,0,55622,1
55623,,René Bougnol,43.6364430280063,3.87421507127824,1,,1
477,11120,René Bougnol,43.6364430280063,3.87421507127824,0,55623,1
483,11203,René Bougnol,43.6364745563365,3.87389409785518,0,55623,1
55624,,Renouvier,43.6071219610824,3.86636182045032,1,,1
544,15217,Renouvier,43.6071219610824,3.86636182045032,0,55624,1
55625,,Restanque,43.5904166495416,3.8848744732649,1,,1
1264,43135,Restanque,43.5904166495416,3.8848744732649,0,55625,1
1283,43223,Restanque,43.5904335598282,3.88494913850408,0,55625,1
55626,,Rièges,43.619731722757,3.84928918456879,1,,1
403,10113,Rièges,43.619731722757,3.84928918456879,0,55626,1
433,10206,Rièges,43.6195786092078,3.84930987757874,0,55626,1
55627,,Rives du Lez,43.6040712861004,3.89493087057306,1,,1
1152,41145,Rives du Lez,43.6040712861004,3.89493087057306,0,55627,1
1165,41211,Rives du Lez,43.6040171912106,3.89494176586073,0,55627,1
1203,42133,Rives du Lez,43.6039440669125,3.89377691614059,0,55627,1
1235,42237,Rives du Lez,43.6039889975652,3.89377814079108,0,55627,1
55628,,Ronceray,43.5937857012004,3.86032764487268,1,,1
216,6107,Ronceray,43.5937857012004,3.86032764487268,0,55628,1
235,6214,Ronceray,43.5939382913426,3.86034408238654,0,55628,1
55629,,Rondelet,43.6040889251336,3.87485354148993,1,,1
196,5212,Rondelet,43.6040889251336,3.87485354148993,0,55629,1
1200,42125,Rondelet,43.6030802177349,3.87624899612494,0,55629,1
1238,42245,Rondelet,43.6030784578395,3.87637265425441,0,55629,1
1363,36137,Rondelet,43.6040889251336,3.87485354148993,0,55629,1
55630,,Roqueturière,43.6303476193321,3.88558582343517,1,,1
395,10104,Roqueturière,43.6303476193321,3.88558582343517,0,55630,1
440,10216,Roqueturière,43.6298494757738,3.8858445919095,0,55630,1
55631,,Rouget de Lisle,43.5948185423093,3.83983553558253,1,,1
119,4103,Rouget de Lisle,43.5948185423093,3.83983553558253,0,55631,1
163,4238,Rouget de Lisle,43.5944737502481,3.83941830180792,0,55631,1
55632,,Route de Ganges,43.6429532782356,3.84534892210135,1,,1
47,2126,Route de Ganges,43.6429532782356,3.84534892210135,0,55632,1
58,2206,Route de Ganges,43.6428478543968,3.84517282910918,0,55632,1
55633,,Sabines,43.5836716364246,3.86039187966581,1,,1
421,10152,Sabines,43.5836716364246,3.86039187966581,0,55633,1
451,10243,Sabines,43.5839580405801,3.85984302951797,0,55633,1
1193,42111,Sabines,43.5839372825969,3.86004033803157,0,55633,1
1245,42259,Sabines,43.5839111950111,3.85997781084598,0,55633,1
1335,17124,Sabines,43.583789674407,3.86030846256513,0,55633,1
55634,,Saint-Clément,43.6177413470572,3.8443983787052,1,,1
339,9110,Saint-Clément,43.6177413470572,3.8443983787052,0,55634,1
382,9218,Saint-Clément,43.6177219955986,3.8444968569179,0,55634,1
55635,,Saint-Cléophas,43.596566482377,3.87535606640262,1,,1
428,10161,Saint-Cléophas,43.596566482377,3.87535606640262,0,55635,1
525,12230,Saint-Cléophas,43.5946998483978,3.87576344201115,0,55635,1
1198,42121,Saint-Cléophas,43.5949905836087,3.87617944402288,0,55635,1
1240,42249,Saint-Cléophas,43.5950092597076,3.87613047200401,0,55635,1
55636,,Saint-Denis,43.6050373963146,3.87453269224891,1,,1
6,107,Saint-Denis,43.6050373963146,3.87453269224891,0,55636,1
43,1235,Saint-Denis,43.6060111920569,3.87306199397269,0,55636,1
1260,43123,Saint-Denis,43.6056690419268,3.87373320298287,0,55636,1
1287,43235,Saint-Denis,43.6059623971558,3.87333284741337,0,55636,1
55637,,Saint-Éloi,43.6262978429829,3.86566267049685,1,,1
411,10136,Saint-Éloi,43.6262978429829,3.86566267049685,0,55637,1
443,10223,Saint-Éloi,43.6263786834231,3.86693951898018,0,55637,1
528,13001,Saint-Éloi,43.6270105263017,3.86675843891466,0,55637,1
1140,41121,Saint-Éloi,43.6269896171141,3.86569356800668,0,55637,1
1177,41235,Saint-Éloi,43.6270072402572,3.86571879128006,0,55637,1
1342,22228,Saint-Éloi,43.6270105263017,3.86675843891466,0,55637,1
55638,,Saint-Gabriel,43.6145904409991,3.85244424401871,1,,1
342,9113,Saint-Gabriel,43.6145904409991,3.85244424401871,0,55638,1
379,9215,Saint-Gabriel,43.6145279047273,3.85177444453973,0,55638,1
55639,,Saint-Guilhem,43.6088095883643,3.87287745165915,1,,1
53,2140,Saint-Guilhem,43.6088095883643,3.87287745165915,0,55639,1
59,2221,Saint-Guilhem,43.6087014026398,3.87289928579799,0,55639,1
55640,,Saint-Jaumes,43.6137782971799,3.87052413964203,1,,1
101,3213,Saint-Jaumes,43.6137782971799,3.87052413964203,0,55640,1
55641,,Saint-Jean,43.6154653182185,3.89776587646284,1,,1
350,9124,Saint-Jean,43.6154653182185,3.89776587646284,0,55641,1
368,9204,Saint-Jean,43.615619689584,3.89765873563585,0,55641,1
55642,,Saint-Lazare,43.6273236970345,3.88895666405127,1,,1
420,10151,Saint-Lazare,43.6273236970345,3.88895666405127,0,55642,1
453,10245,Saint-Lazare,43.6271067837048,3.8890373984031,0,55642,1
1210,42149,Saint-Lazare,43.6266187470306,3.88859098242226,0,55642,1
1228,42221,Saint-Lazare,43.6266460607155,3.88856697329696,0,55642,1
55643,,Saint-Martin,43.5922730822352,3.88015063500089,1,,1
1263,43133,Saint-Martin,43.5922730822352,3.88015063500089,0,55643,1
1284,43225,Saint-Martin,43.5922630375671,3.88022457302336,0,55643,1
55644,,Saint-Maur,43.621014179754,3.89387108777002,1,,1
535,14106,Saint-Maur,43.621014179754,3.89387108777002,0,55644,1
538,14111,Saint-Maur,43.6210379342734,3.89409447648366,0,55644,1
55645,,Saint-Michel,43.6061314907569,3.89856236821735,1,,1
364,9148,Saint-Michel,43.6061314907569,3.89856236821735,0,55645,1
372,9208,Saint-Michel,43.6061314907569,3.89856236821735,0,55645,1
55646,,Saint-Paul,43.6305550094966,3.82139485511469,1,,1
583,19102,Saint-Paul,43.6305550094966,3.82139485511469,0,55646,1
1132,41105,Saint-Paul,43.6306581031337,3.8210881264583,0,55646,1
1185,41251,Saint-Paul,43.6306854019139,3.82106408334805,0,55646,1
55647,,Saint-Priest,43.6351553782076,3.84368235202323,1,,1
244,7101,Saint-Priest,43.6351553782076,3.84368235202323,0,55647,1
299,7228,Saint-Priest,43.6344646270561,3.84357748056025,0,55647,1
55648,,Saint-Roch,43.6152010586818,3.86972097175336,1,,1
73,3118,Saint-Roch,43.6152010586818,3.86972097175336,0,55648,1
100,3212,Saint-Roch,43.6152391064825,3.86957351492872,0,55648,1
55649,,Sainte-Catherine,43.6264271731668,3.87619776716434,1,,1
398,10108,Sainte-Catherine,43.6264271731668,3.87619776716434,0,55649,1
437,10212,Sainte-Catherine,43.6262879783816,3.8765034042795,0,55649,1
55650,,Sainte-Geneviève,43.6232363179595,3.84423407619641,1,,1
82,3131,Sainte-Geneviève,43.6232363179595,3.84423407619641,0,55650,1
91,3202,Sainte-Geneviève,43.6230080395239,3.84448792059845,0,55650,1
55651,,Sainte-Odile,43.6226043725318,3.87318664271746,1,,1
202,5233,Sainte-Odile,43.6226043725318,3.87318664271746,0,55651,1
480,11128,Sainte-Odile,43.6227685847907,3.87301781336488,0,55651,1
55652,,Sainte-Thérèse,43.6142855976438,3.8651678990776,1,,1
253,7114,Sainte-Thérèse,43.6142855976438,3.8651678990776,0,55652,1
290,7217,Sainte-Thérèse,43.6141006302092,3.86553413665737,0,55652,1
55653,,Salaison,43.6239005916847,3.89881321804014,1,,1
317,8120,Salaison,43.6239005916847,3.89881321804014,0,55653,1
325,8204,Salaison,43.6238220366039,3.89865019270882,0,55653,1
55654,,Samuel Morse,43.6063885552467,3.91306863594444,1,,1
358,9140,Samuel Morse,43.6063885552467,3.91306863594444,0,55654,1
391,9239,Samuel Morse,43.6070303286057,3.91344512045481,0,55654,1
55655,,Saporta,43.5845960620058,3.88831546016846,1,,1
64,3105,Saporta,43.5845960620058,3.88831546016846,0,55655,1
109,3223,Saporta,43.5836000909823,3.88755880194497,0,55655,1
55656,,Sémard,43.6191462999868,3.90307599089078,1,,1
353,9129,Sémard,43.6191462999868,3.90307599089078,0,55656,1
354,9132,Sémard,43.6191662745309,3.90355912959453,0,55656,1
417,10148,Sémard,43.6196044778112,3.90433835345104,0,55656,1
455,10247,Sémard,43.6196689940221,3.90422875620071,0,55656,1
55657,,Soleiado,43.6006959412633,3.88646426063866,1,,1
309,8106,Soleiado,43.6006959412633,3.88646426063866,0,55657,1
335,8219,Soleiado,43.600319537082,3.88701069960196,0,55657,1
55658,,Sophie Germain,43.6050392020931,3.83532931111929,1,,1
271,7161,Sophie Germain,43.6050392020931,3.83532931111929,0,55658,1
305,7263,Sophie Germain,43.6050727487636,3.8355033832421,0,55658,1
55659,,Stade de la Mosson,43.6212518122144,3.81737884035853,1,,1
1159,41163,Stade de la Mosson,43.6212518122144,3.81737884035853,0,55659,1
1188,41263,Stade de la Mosson,43.6212967443061,3.81738000526255,0,55659,1
55660,,Stade Philippidès,43.618989362045,3.8694638115266,1,,1
1142,41125,Stade Philippidès,43.618989362045,3.8694638115266,0,55660,1
1175,41231,Stade Philippidès,43.6189888364122,3.86950091936459,0,55660,1
55661,,TaM,43.5814007581139,3.87032292395769,1,,1
505,12130,TaM,43.5814007581139,3.87032292395769,0,55661,1
523,12227,TaM,43.5814139509832,3.87002649768135,0,55661,1
55662,,Tonnelles,43.6140541100597,3.8380404003282,1,,1
8,1112,Tonnelles,43.6140541100597,3.8380404003282,0,55662,1
41,1226,Tonnelles,43.6138982532619,3.83825901379296,0,55662,1
409,10129,Tonnelles,43.6131082031905,3.83883213033132,0,55662,1
447,10231,Tonnelles,43.6133555269458,3.83914795121579,0,55662,1
1255,43113,Tonnelles,43.6134870583418,3.8393864922483,0,55662,1
1292,43245,Tonnelles,43.6136209942391,3.83945187947761,0,55662,1
55663,,Tournezy,43.5791363920511,3.8778421298834,1,,1
60,3101,Tournezy,43.5791363920511,3.8778421298834,0,55663,1
55664,,Tourterelles,43.6258007908126,3.87851984701323,1,,1
397,10107,Tourterelles,43.6258007908126,3.87851984701323,0,55664,1
438,10213,Tourterelles,43.6257278427995,3.87859213030577,0,55664,1
55665,,Universités des Sciences et Lettres,43.6291538619885,3.86139510694249,1,,1
218,6115,Universités Sciences et Lettres,43.6291538619885,3.86139510694249,0,55665,1
233,6207,Universités Sciences et Lettres,43.6293747630475,3.86102971892555,0,55665,1
1139,41119,Universités Sciences et Lettres,43.6291244626956,3.8615675881189,0,55665,1
1178,41237,Universités Sciences et Lettres,43.6291602338901,3.8615809194992,0,55665,1
55666,,Uppsala,43.6295181787144,3.8209594858341,1,,1
584,19201,Uppsala,43.6295181787144,3.8209594858341,0,55666,1
55667,,Val d'Aurelle,43.6427249884188,3.83589768237642,1,,1
49,2128,Val d'Aurelle,43.6427249884188,3.83589768237642,0,55667,1
56,2204,Val d'Aurelle,43.6428168126498,3.83640763454239,0,55667,1
55668,,Vauguières,43.6044999149047,3.90694237417855,1,,1
413,10144,Vauguières,43.6044999149047,3.90694237417855,0,55668,1
459,10251,Vauguières,43.6043845314403,3.90684023513591,0,55668,1
55669,,Véga,43.5957074797539,3.84958084817903,1,,1
212,6103,Véga,43.5957074797539,3.84958084817903,0,55669,1
239,6219,Véga,43.5956701515617,3.84967881073631,0,55669,1
55670,,Vert Bois,43.6353031499059,3.8683793182576,1,,1
176,5125,Vert Bois,43.6353031499059,3.8683793182576,0,55670,1
194,5206,Vert Bois,43.6342201722793,3.86804083520621,0,55670,1
55671,,Vieille Poste,43.6105865871079,3.90006987785678,1,,1
470,11105,Vieille Poste,43.6105865871079,3.90006987785678,0,55671,1
490,11218,Vieille Poste,43.6108074880023,3.90033574225849,0,55671,1
55672,,Villeneuve d'Angoulême,43.5887380443422,3.86574602237706,1,,1
1194,42113,Villeneuve d'Angoulême,43.5887380443422,3.86574602237706,0,55672,1
1244,42257,Villeneuve d'Angoulême,43.5887387434499,3.86569657141145,0,55672,1
55673,,Vincent Auriol,43.6479666716656,3.86415078559688,1,,1
726,22266,Vincent Auriol,43.6479666716656,3.86415078559688,0,55673,1
750,23124,Vincent Auriol,43.6502578266968,3.86678728880941,0,55673,1
55674,,Vivaldi,43.59605699082,3.85607143961339,1,,1
553,17133,Vivaldi,43.59605699082,3.85607143961339,0,55674,1
561,17233,Vivaldi,43.5962432686055,3.85624955941843,0,55674,1
55675,,Voie Domitienne,43.6222658252699,3.85961488269277,1,,1
402,10112,Voie Domitienne,43.6222658252699,3.85961488269277,0,55675,1
434,10207,Voie Domitienne,43.6226758194155,3.86050442315675,0,55675,1
55676,,Volta Fizeau,43.6138734599318,3.91331233086448,1,,1
356,9138,Volta Fizeau,43.6138734599318,3.91331233086448,0,55676,1
389,9236,Volta Fizeau,43.613794386686,3.91318641827075,0,55676,1
55677,,Voltaire,43.6035533065908,3.88906539744448,1,,1
1202,42131,Voltaire,43.6035533065908,3.88906539744448,0,55677,1
1236,42239,Voltaire,43.6035799101074,3.88909086176948,0,55677,1
55678,,Winston Churchill,43.598962997167,3.85590132945391,1,,1
552,17132,Winston Churchill,43.598962997167,3.85590132945391,0,55678,1
560,17232,Winston Churchill,43.5991962905694,3.85593227225049,0,55678,1
55679,,Yves du Manoir,43.5914326651045,3.84863901222199,1,,1
426,10157,Yves du Manoir,43.5914326651045,3.84863901222199,0,55679,1
464,10257,Yves du Manoir,43.5914373308446,3.84830520103188,0,55679,1
55680,,Zénith,43.6120774911651,3.93096801781037,1,,1
500,12117,Zénith,43.6120774911651,3.93096801781037,0,55680,1
511,12204,Zénith,43.6122286146762,3.93108359031285,0,55680,1
55681,,Zoo,43.6399642433204,3.87314631500562,1,,1
188,5162,Zoo,43.6399642433204,3.87314631500562,0,55681,1
208,5283,Zoo,43.6398838923997,3.87310701709227,0,55681,1
55682,,Bonadona,43.5556988234753,3.96566170060797,1,,1
884,28116,Bonadona,43.5556988234753,3.96566170060797,0,55682,1
889,28203,Bonadona,43.5547325649882,3.96654883789795,0,55682,1
55683,,Cabanes de Pérols,43.5525489910486,3.96827877876301,1,,1
885,28117,Cabanes de Pérols,43.5525489910486,3.96827877876301,0,55683,1
888,28202,Cabanes de Pérols,43.5511188213444,3.968930105126,0,55683,1
55684,,Croix du Languedoc,43.566616823893,3.9485534862777,1,,1
879,28111,Croix du Languedoc,43.566616823893,3.9485534862777,0,55684,1
894,28208,Croix du Languedoc,43.5668014708263,3.94883067751801,0,55684,1
55685,,EcoPôle,43.5781554165651,3.93489368914411,1,,1
1270,43151,EcoPôle,43.5781554165651,3.93489368914411,0,55685,1
1277,43207,EcoPôle,43.5781633062941,3.93496810185242,0,55685,1
55686,,Lauriers,43.5687009529306,3.94563269277718,1,,1
878,28110,Lauriers,43.5687009529306,3.94563269277718,0,55686,1
895,28209,Lauriers,43.568799244624,3.94567254957003,0,55686,1
55687,,Parc Expo,43.5732929176614,3.94453788989593,1,,1
886,28125,Parc Expo,43.5732929176614,3.94453788989593,0,55687,1
896,28225,Parc Expo,43.5733690109591,3.94486150332421,0,55687,1
1271,43153,Parc Expo,43.5729914003502,3.94546909162006,0,55687,1
1276,43205,Parc Expo,43.572981311176,3.94554299318903,0,55687,1
55688,,Pérols Centre,43.5630506390039,3.95018362938491,1,,1
880,28112,Pérols Centre,43.5630506390039,3.95018362938491,0,55688,1
893,28207,Pérols Centre,43.5627592228126,3.95043500749049,0,55688,1
1272,43155,Pérols Centre,43.565552992202,3.9571773613321,0,55688,1
1275,43203,Pérols Centre,43.5655333536454,3.95728806877166,0,55688,1
55689,,Pérols Étang de l'Or,43.5580406963095,3.9635652386215,1,,1
1274,43201,Pérols Étang de l'Or,43.5580406963095,3.9635652386215,0,55689,1
55690,,Pérols Sud,43.5595582347704,3.9582930201244,1,,1
882,28114,Pérols Sud,43.5595582347704,3.9582930201244,0,55690,1
891,28205,Pérols Sud,43.5598054814322,3.95799099717046,0,55690,1
55691,,Plein Sud,43.5711556335863,3.94196790511588,1,,1
887,28126,Plein Sud,43.5711556335863,3.94196790511588,0,55691,1
897,28226,Plein Sud,43.5715387112948,3.94280704770848,0,55691,1
55692,,Radel,43.556831412586,3.96387692988203,1,,1
883,28115,Radel,43.556831412586,3.96387692988203,0,55692,1
890,28204,Radel,43.5566596253575,3.96453952310822,0,55692,1
55693,,Saint-Jean,43.5610873391765,3.95222970657489,1,,1
881,28113,Saint-Jean,43.5610873391765,3.95222970657489,0,55693,1
892,28206,Saint-Jean,43.5610163127537,3.95277161385895,0,55693,1
55694,,Coopérative Oléicole,43.5846567402591,3.75697350917955,1,,1
1039,36119,Coopérative Oléicole,43.5846567402591,3.75697350917955,0,55694,1
1083,36218,Coopérative Oléicole,43.5846544673153,3.75714657967765,0,55694,1
55695,,Distillerie,43.5855686578199,3.7669016793678,1,,1
1035,36115,Distillerie,43.5855686578199,3.7669016793678,0,55695,1
1087,36222,Distillerie,43.5854711165393,3.76680030690204,0,55695,1
55696,,Gaston Defferre,43.5842254619923,3.7528448748962,1,,1
1040,36120,Gaston Defferre,43.5842254619923,3.7528448748962,0,55696,1
1082,36217,Gaston Defferre,43.5842679652565,3.75303141989369,0,55696,1
55697,,Jean Moulin,43.5826388466637,3.7518162986728,1,,1
1041,36121,Jean Moulin,43.5826388466637,3.7518162986728,0,55697,1
1081,36216,Jean Moulin,43.582527775852,3.75206086319454,0,55697,1
55698,,La Bornière,43.5796402726444,3.75358445624969,1,,1
1043,36123,La Bornière,43.5796402726444,3.75358445624969,0,55698,1
1079,36214,La Bornière,43.5795461986944,3.75390361662581,0,55698,1
55699,,Le Temple,43.5855110856342,3.76241122794081,1,,1
1037,36117,Le Temple,43.5855110856342,3.76241122794081,0,55699,1
1085,36220,Le Temple,43.5855517795002,3.76273377017373,0,55699,1
55700,,Lotissement Les Violettes,43.5875582247138,3.76599922425541,1,,1
1036,36116,Lotissement Les Violettes,43.5875582247138,3.76599922425541,0,55700,1
1086,36221,Lotissement Les Violettes,43.5876257034101,3.76633481783415,0,55700,1
55701,,Maison de Retraite,43.5812966310094,3.75065780671873,1,,1
1042,36122,Maison de Retraite,43.5812966310094,3.75065780671873,0,55701,1
1080,36215,Maison de Retraite,43.5814325565664,3.75057461109793,0,55701,1
55702,,Médiathèque La Gare,43.5861447560049,3.76002792662739,1,,1
1038,36118,Médiathèque La Gare,43.5861447560049,3.76002792662739,0,55702,1
55703,,Saint-Martin de Vignogoul,43.5856951430908,3.78978286906922,1,,1
1115,38108,Saint-Martin de Vignogoul,43.5856951430908,3.78978286906922,0,55703,1
1124,38208,Saint-Martin de Vignogoul,43.5856066094873,3.78968168579836,0,55703,1
55704,,Square Tribes,43.5840095978677,3.75970269549395,1,,1
1084,36219,Square Tribes,43.5840095978677,3.75970269549395,0,55704,1
55705,,Cave Coopérative,43.6944440058287,3.86232257997101,1,,1
746,23120,Cave Coopérative,43.6944440058287,3.86232257997101,0,55705,1
55706,,Coste Rousse,43.6947795098159,3.87039771499351,1,,1
754,23132,Coste Rousse,43.6947795098159,3.87039771499351,0,55706,1
777,23230,Coste Rousse,43.6947583801295,3.87062017451685,0,55706,1
55707,,Ducque,43.6971916160294,3.8676622194541,1,,1
753,23131,Ducque,43.6971916160294,3.8676622194541,0,55707,1
778,23231,Ducque,43.6972776336108,3.867937129467,0,55707,1
55708,,Frayssinet,43.6959612087004,3.8624746761768,1,,1
747,23121,Frayssinet,43.6959612087004,3.8624746761768,0,55708,1
757,23206,Frayssinet,43.6966715168887,3.86246889509736,0,55708,1
55709,,Les Baronnes,43.693673551305,3.87231323887278,1,,1
749,23123,Les Baronnes,43.693673551305,3.87231323887278,0,55709,1
1344,23134,Les Baronnes,43.693673551305,3.87231323887278,0,55709,1
55710,,Mairie,43.6972565345328,3.86369885689509,1,,1
748,23122,Mairie,43.6972565345328,3.86369885689509,0,55710,1
756,23201,Mairie,43.6973053926804,3.86405950269175,0,55710,1
55711,,Mandarine,43.6929354424852,3.86219550286906,1,,1
745,23119,Mandarine,43.6929354424852,3.86219550286906,0,55711,1
759,23208,Mandarine,43.6932427377124,3.8620798202514,0,55711,1
55712,,Moulin Neuf,43.6903352935939,3.86233659026386,1,,1
744,23118,Moulin Neuf,43.6903352935939,3.86233659026386,0,55712,1
760,23210,Moulin Neuf,43.6904263822631,3.86225230017191,0,55712,1
55713,,Pendances,43.6838600280543,3.86314208671443,1,,1
742,23116,Pendances,43.6838600280543,3.86314208671443,0,55713,1
762,23212,Pendances,43.6841477783395,3.86313739760866,0,55713,1
55714,,Pont Vert,43.6867067342774,3.8633669198391,1,,1
743,23117,Pont Vert,43.6867067342774,3.8633669198391,0,55714,1
761,23211,Pont Vert,43.6865453216254,3.86333782306496,0,55714,1
55715,,Le Mas,43.7215943543633,4.03580684860891,1,,1
938,31105,Le Mas,43.7215943543633,4.03580684860891,0,55715,1
55716,,Mairie,43.7235452475241,4.03867916272428,1,,1
1011,35108,Mairie,43.7235452475241,4.03867916272428,0,55716,1
1021,35207,Mairie,43.7236976304905,4.03870850654896,0,55716,1
55717,,Micocoulier,43.6668839413985,4.0296573625063,1,,1
910,29127,Micocoulier,43.6668839413985,4.0296573625063,0,55717,1
926,29222,Micocoulier,43.6669087711918,4.02979433296822,0,55717,1
55718,,Olivette,43.665591204711,4.03183585596886,1,,1
911,29128,Olivette,43.665591204711,4.03183585596886,0,55718,1
925,29221,Olivette,43.6654796879613,4.03206785054589,0,55718,1
55719,,Saint-Brès,43.6648851280403,4.0367315161038,1,,1
913,29130,Saint-Brès,43.6648851280403,4.0367315161038,0,55719,1
1351,29224,Saint-Brès,43.6648851280403,4.0367315161038,0,55719,1
55720,,Sophoras,43.6680180706129,4.02669380919772,1,,1
909,29126,Sophoras,43.6680180706129,4.02669380919772,0,55720,1
927,29223,Sophoras,43.668152478037,4.02672256016637,0,55720,1
55721,,Versant,43.6642724636242,4.03624265950085,1,,1
912,29129,Versant,43.6642724636242,4.03624265950085,0,55721,1
55722,,Les Mazes,43.7315319686515,3.98141167566906,1,,1
1065,36157,Les Mazes,43.7315319686515,3.98141167566906,0,55722,1
1102,36257,Les Mazes,43.7315233579095,3.98138662967919,0,55722,1
55723,,Lotissement Les Lilas,43.7280521890848,3.96475996379462,1,,1
1059,36151,Lotissement Les Lilas,43.7280521890848,3.96475996379462,0,55723,1
1097,36251,Lotissement Les Lilas,43.7280561501543,3.96509482193248,0,55723,1
55724,,Lotisssement Les Romarins,43.7294080220182,3.96965880597218,1,,1
1061,36153,Lotisssement Les Romarins,43.7294080220182,3.96965880597218,0,55724,1
1100,36255,Lotisssement Les Romarins,43.7296499431564,3.97031044900102,0,55724,1
55725,,Mas de Bizard,43.7263026445607,3.98060373253866,1,,1
1066,36158,Mas de Bizard,43.7263026445607,3.98060373253866,0,55725,1
1103,36258,Mas de Bizard,43.7263208059979,3.98059185861098,0,55725,1
55726,,Route de Teyran,43.7337692455794,3.97913277092653,1,,1
1101,36256,Route de Teyran,43.7337692455794,3.97913277092653,0,55726,1
55727,,Stade,43.7334570918566,3.98015290902348,1,,1
1060,36152,Stade,43.7334570918566,3.98015290902348,0,55727,1
1098,36253,Stade,43.7334484808115,3.98012786237778,0,55727,1
55728,,Avenue de Montpellier,43.6968876108024,4.03238189032313,1,,1
1010,35107,Avenue de Montpellier,43.6968876108024,4.03238189032313,0,55728,1
1022,35208,Avenue de Montpellier,43.6969862677226,4.03239721487862,0,55728,1
55729,,Les Mazets,43.6990994048816,4.01853158104081,1,,1
934,31101,Les Mazets,43.6990994048816,4.01853158104081,0,55729,1
940,31201,Les Mazets,43.6991879238241,4.0186209344005,0,55729,1
55730,,Les Mourguettes,43.6969011611902,4.02633528756693,1,,1
936,31103,Les Mourguettes,43.6969011611902,4.02633528756693,0,55730,1
942,31203,Les Mourguettes,43.6969623278733,4.02644862226866,0,55730,1
55731,,Les Pérouses,43.698168401181,4.02405558801792,1,,1
935,31102,Les Pérouses,43.698168401181,4.02405558801792,0,55731,1
941,31202,Les Pérouses,43.6981940102701,4.02414308734036,0,55731,1
55732,,Poste,43.696589751137,4.0313073791286,1,,1
937,31104,Poste,43.696589751137,4.0313073791286,0,55732,1
943,31204,Poste,43.6966723724999,4.03119831167937,0,55732,1
55733,,Avenue Justin Bec,43.6260008272563,3.76842164281953,1,,1
1324,40107,Avenue Justin Bec,43.6260008272563,3.76842164281953,0,55733,1
1329,40207,Avenue Justin Bec,43.6252694612292,3.76934381091798,0,55733,1
55734,,Bel Horizon,43.6120008086346,3.77680550255084,1,,1
1321,40104,Bel Horizon,43.6120008086346,3.77680550255084,0,55734,1
55735,,Catalpas,43.6109583259963,3.77880822367297,1,,1
1320,40103,Catalpas,43.6109583259963,3.77880822367297,0,55735,1
55736,,Dame d'Orcas,43.6145143119907,3.78044459582069,1,,1
1323,40106,Dame d'Orcas,43.6145143119907,3.78044459582069,0,55736,1
1328,40206,Dame d'Orcas,43.6145143119907,3.78044459582069,0,55736,1
55737,,Gare,43.6093520371401,3.78800928537965,1,,1
1318,40101,Gare,43.6093520371401,3.78800928537965,0,55737,1
1326,40201,Gare,43.6090556780449,3.78865745014206,0,55737,1
55738,,La Regnague,43.608822881477,3.79593837480194,1,,1
1055,36138,La Regnague,43.608822881477,3.79593837480194,0,55738,1
1093,36238,La Regnague,43.6089862556987,3.79715496457925,0,55738,1
55739,,Le Réservoir,43.6145907816199,3.77605420001565,1,,1
1322,40105,Le Réservoir,43.6145907816199,3.77605420001565,0,55739,1
55740,,Le Saint-Georges,43.610661328737,3.78421962449927,1,,1
1319,40102,Le Saint-Georges,43.610661328737,3.78421962449927,0,55740,1
1327,40202,Le Saint-Georges,43.6106154038637,3.78429269222088,0,55740,1
55741,,Stade,43.6075893521589,3.7847108612135,1,,1
1056,36139,Stade,43.6075893521589,3.7847108612135,0,55741,1
1092,36237,Stade,43.6073598434165,3.78439576349506,0,55741,1
55742,,Zone Artisanale,43.6292720835804,3.76917195755406,1,,1
1325,40108,Zone Artisanale,43.6292720835804,3.76917195755406,0,55742,1
1366,40208,Zone Artisanale,43.6292720835804,3.76917195755406,0,55742,1
55743,,Allée du Bois,43.5821412705962,3.82439098365076,1,,1
587,20102,Allée du Bois,43.5821412705962,3.82439098365076,0,55743,1
633,20235,Allée du Bois,43.5821302437526,3.82453908696203,0,55743,1
55744,,Cave Coopérative,43.5732129989929,3.8271383101942,1,,1
863,26111,Cave Coopérative,43.5732129989929,3.8271383101942,0,55744,1
868,26209,Cave Coopérative,43.5733820305189,3.82726635763535,0,55744,1
55745,,Centre Commercial,43.5706326649374,3.84724811924939,1,,1
858,26103,Centre Commercial,43.5706326649374,3.84724811924939,0,55745,1
865,26206,Centre Commercial,43.5705032267486,3.84686143275553,0,55745,1
55746,,Château du Terral,43.5829771988692,3.8309172900504,1,,1
586,20101,Château du Terral,43.5829771988692,3.8309172900504,0,55746,1
634,20236,Château du Terral,43.5829395463318,3.83103996615456,0,55746,1
55747,,Collège Louis Germain,43.5786896248879,3.82306462523304,1,,1
588,20103,Collège Louis Germain,43.5786896248879,3.82306462523304,0,55747,1
632,20234,Collège Louis Germain,43.5787320068054,3.82325120431642,0,55747,1
55748,,Côteaux,43.5775540041006,3.83500430187554,1,,1
593,20109,Côteaux,43.5775540041006,3.83500430187554,0,55748,1
627,20228,Côteaux,43.5776091193804,3.83491919233706,0,55748,1
55750,,Jasses,43.5706156432641,3.82775057080065,1,,1
856,26101,Jasses,43.5706156432641,3.82775057080065,0,55750,1
867,26208,Jasses,43.5704350209359,3.82846293311705,0,55750,1
55751,,La Condamine,43.5716010011206,3.84420752480811,1,,1
1191,42105,La Condamine,43.5716010011206,3.84420752480811,0,55751,1
1247,42265,La Condamine,43.5716010011206,3.84420752480811,0,55751,1
55752,,La Lauze,43.5617620872128,3.84518422893609,1,,1
860,26108,La Lauze,43.5617620872128,3.84518422893609,0,55752,1
55753,,La Roque,43.5698754636093,3.83512447603848,1,,1
857,26102,La Roque,43.5698754636093,3.83512447603848,0,55753,1
866,26207,La Roque,43.5698863335877,3.83498876528569,0,55753,1
55754,,Le Terral,43.5925880733468,3.82822500224462,1,,1
1108,38101,Le Terral,43.5925880733468,3.82822500224462,0,55754,1
1117,38201,Le Terral,43.5924978703958,3.82824738388591,0,55754,1
55755,,Louise Michel,43.5809232780559,3.83383133964099,1,,1
610,20140,Louise Michel,43.5809232780559,3.83383133964099,0,55755,1
636,20240,Louise Michel,43.5809244759308,3.83374481161032,0,55755,1
55756,,Marquerose,43.5834241466041,3.82653899079839,1,,1
611,20141,Marquerose,43.5834241466041,3.82653899079839,0,55756,1
637,20241,Marquerose,43.5833790456223,3.82655018116381,0,55756,1
55757,,Mas de Magret,43.5679026644706,3.82827321895135,1,,1
861,26109,Mas de Magret,43.5679026644706,3.82827321895135,0,55757,1
870,26211,Mas de Magret,43.567947253608,3.82829910804725,0,55757,1
55758,,Roudères,43.5748892526788,3.82552520477809,1,,1
592,20107,Roudères,43.5748892526788,3.82552520477809,0,55758,1
628,20230,Roudères,43.5749369057723,3.82532861711332,0,55758,1
55759,,Saint-Hubéry,43.573566403664,3.81974148538565,1,,1
591,20106,Saint-Hubéry,43.573566403664,3.81974148538565,0,55759,1
629,20231,Saint-Hubéry,43.5736479564764,3.81969414534803,0,55759,1
1339,20142,Saint-Hubéry,43.573566403664,3.81974148538565,0,55759,1
55760,,Saint-Jean de Védas Centre,43.5747502037232,3.83039310776656,1,,1
609,20139,Saint-Jean de Védas Centre,43.5747502037232,3.83039310776656,0,55760,1
635,20239,Saint-Jean de Védas Centre,43.5747044196853,3.83045373263947,0,55760,1
1189,42101,Saint-Jean de Védas Centre,43.5748036079191,3.83043159629415,0,55760,1
55761,,Saint-Jean le Sec,43.5707582689587,3.83758321574079,1,,1
608,20138,Saint-Jean le Sec,43.5707582689587,3.83758321574079,0,55761,1
638,20242,Saint-Jean le Sec,43.5707577542797,3.8376202925516,0,55761,1
1190,42103,Saint-Jean le Sec,43.5705875344994,3.83757873266956,0,55761,1
1248,42267,Saint-Jean le Sec,43.5706234785942,3.83757967647181,0,55761,1
55762,,Sigaliès,43.5721256175153,3.81467208646346,1,,1
980,33101,Sigaliès,43.5721256175153,3.81467208646346,0,55762,1
1001,33209,Sigaliès,43.5719821780533,3.81464365025615,0,55762,1
55763,,Terre Neuve,43.5610375573451,3.84942978329142,1,,1
859,26107,Terre Neuve,43.5610375573451,3.84942978329142,0,55763,1
864,26202,Terre Neuve,43.5606952274561,3.84948253155492,0,55763,1
55764,,Tourtourel,43.5758497183819,3.81973890937861,1,,1
590,20105,Tourtourel,43.5758497183819,3.81973890937861,0,55764,1
630,20232,Tourtourel,43.5756893247052,3.81963583193527,0,55764,1
55765,,Val des Garrigues,43.5667391722589,3.82659864198541,1,,1
862,26110,Val des Garrigues,43.5667391722589,3.82659864198541,0,55765,1
869,26210,Val des Garrigues,43.5667215408174,3.82657345737539,0,55765,1
55766,,Victoire 2,43.5747710723995,3.84958307342985,1,,1
1192,42107,Victoire 2,43.5747710723995,3.84958307342985,0,55766,1
1246,42263,Victoire 2,43.5748077082151,3.84953458574525,0,55766,1
55767,,Aires,43.5725624228348,3.77291879372873,1,,1
992,33113,Aires,43.5725624228348,3.77291879372873,0,55767,1
1005,33213,Aires,43.5726755095033,3.77252599789567,0,55767,1
55768,,Barils,43.5718374540171,3.77335802701292,1,,1
991,33112,Barils,43.5718374540171,3.77335802701292,0,55768,1
1004,33212,Barils,43.5718933415136,3.77321106970361,0,55768,1
55769,,La Gardiole,43.5686981529021,3.77080656778746,1,,1
1032,36112,La Gardiole,43.5686981529021,3.77080656778746,0,55769,1
1090,36225,La Gardiole,43.5687543646028,3.77063489865563,0,55769,1
55770,,La Vialette,43.5686300053396,3.77390791831162,1,,1
1031,36111,La Vialette,43.5686300053396,3.77390791831162,0,55770,1
1091,36226,La Vialette,43.5685474871876,3.77402947139574,0,55770,1
55771,,Les Cévennes,43.5726848958849,3.77114150315777,1,,1
1034,36114,Les Cévennes,43.5726848958849,3.77114150315777,0,55771,1
1088,36223,Les Cévennes,43.5726327822961,3.77100419517565,0,55771,1
55772,,Les Combes,43.5706968980506,3.76921240418702,1,,1
1033,36113,Les Combes,43.5706968980506,3.76921240418702,0,55772,1
1089,36224,Les Combes,43.5706630818798,3.76905083486401,0,55772,1
55773,,Mairie,43.5707553368914,3.77361518454242,1,,1
990,33111,Mairie,43.5707553368914,3.77361518454242,0,55773,1
1003,33211,Mairie,43.5707662938811,3.77346710091601,0,55773,1
55774,,Pascaou,43.567961629119,3.77347078403275,1,,1
993,33114,Pascaou,43.567961629119,3.77347078403275,0,55774,1
1006,33214,Pascaou,43.5680246963421,3.77346000651735,0,55774,1
55775,,Coopérative,43.714482835237,4.00220228569172,1,,1
1303,27122,Coopérative,43.714482835237,4.00220228569172,0,55775,1
1311,27222,Coopérative,43.714581307301,4.00222995234349,0,55775,1
55776,,Lahntal,43.7163168051069,4.00454903145803,1,,1
1305,27124,Lahntal,43.7163168051069,4.00454903145803,0,55776,1
1313,27224,Lahntal,43.716141457465,4.0042588056855,0,55776,1
55777,,Les Garrigues,43.7054842085569,4.00622752161563,1,,1
1300,27119,Les Garrigues,43.7054842085569,4.00622752161563,0,55777,1
1308,27219,Les Garrigues,43.7054863079011,4.00609125795904,0,55777,1
55778,,Les Mazes,43.7093812891228,4.00537488466142,1,,1
1301,27120,Les Mazes,43.7093812891228,4.00537488466142,0,55778,1
1309,27220,Les Mazes,43.7096405646681,4.00546923047789,0,55778,1
55779,,Mairie,43.7122937079196,4.00541053581266,1,,1
1302,27121,Mairie,43.7122937079196,4.00541053581266,0,55779,1
1310,27221,Mairie,43.7122493472008,4.00537205362302,0,55779,1
55780,,Albert Dubout,43.6623881859945,3.97475036374498,1,,1
652,21120,Albert Dubout,43.6623881859945,3.97475036374498,0,55780,1
670,21223,Albert Dubout,43.6624864739887,3.97479033613828,0,55780,1
55781,,Arènes,43.6551376783468,3.96729872674345,1,,1
644,21107,Arènes,43.6551376783468,3.96729872674345,0,55781,1
663,21211,Arènes,43.6552269822448,3.96733842449034,0,55781,1
55782,,Châtaigniers,43.6509331536916,3.95932893397191,1,,1
641,21104,Châtaigniers,43.6509331536916,3.95932893397191,0,55782,1
666,21214,Châtaigniers,43.6501659046634,3.95773473381412,0,55782,1
55783,,Devèzes,43.662771894874,3.97017937002017,1,,1
647,21110,Devèzes,43.662771894874,3.97017937002017,0,55783,1
659,21207,Devèzes,43.6627381901094,3.97002979983257,0,55783,1
55784,,Écoles,43.6586958890196,3.96742515214175,1,,1
661,21209,Écoles,43.6586958890196,3.96742515214175,0,55784,1
55785,,Frédéric Mistral,43.6640061031843,3.97417759989132,1,,1
648,21111,Frédéric Mistral,43.6640061031843,3.97417759989132,0,55785,1
658,21206,Frédéric Mistral,43.6642826188085,3.97372732109733,0,55785,1
55786,,Gustave Courbet,43.6583862630538,3.97602238567216,1,,1
650,21115,Gustave Courbet,43.6583862630538,3.97602238567216,0,55786,1
656,21202,Gustave Courbet,43.6584662028526,3.97608659620511,0,55786,1
55787,,La Fontaine,43.6579005894523,3.96291988312431,1,,1
655,21123,La Fontaine,43.6579005894523,3.96291988312431,0,55787,1
673,21226,La Fontaine,43.6577727357394,3.96305244973031,0,55787,1
55788,,Meyrargues,43.6537344252754,3.96914067654354,1,,1
898,29101,Meyrargues,43.6537344252754,3.96914067654354,0,55788,1
923,29212,Meyrargues,43.6538663579128,3.96814151932332,0,55788,1
55789,,Monnaie,43.6605717334777,3.97001733097103,1,,1
646,21109,Monnaie,43.6605717334777,3.97001733097103,0,55789,1
660,21208,Monnaie,43.6603388354783,3.96996113263219,0,55789,1
55790,,Parc Gouneaud,43.6545071508199,3.96499004556314,1,,1
643,21106,Parc Gouneaud,43.6545071508199,3.96499004556314,0,55790,1
664,21212,Parc Gouneaud,43.6542247447038,3.96404096301365,0,55790,1
55791,,Parc Vendargues,43.6607798160172,3.97528621912745,1,,1
649,21112,Parc Vendargues,43.6607798160172,3.97528621912745,0,55791,1
657,21205,Parc Vendargues,43.6606519468858,3.97541876471285,0,55791,1
55792,,Paul Gauguin,43.6550768759235,3.97549395989519,1,,1
651,21119,Paul Gauguin,43.6550768759235,3.97549395989519,0,55792,1
1341,21124,Paul Gauguin,43.6556695965254,3.97553574299744,0,55792,1
55793,,Poste,43.6576550377218,3.96848508853239,1,,1
645,21108,Poste,43.6576550377218,3.96848508853239,0,55793,1
662,21210,Poste,43.6577473258117,3.96832675201828,0,55793,1
55794,,Zone Industrielle,43.6535363955843,3.96258505236714,1,,1
642,21105,Zone Industrielle,43.6535363955843,3.96258505236714,0,55794,1
665,21213,Zone Industrielle,43.6533472448138,3.96201010501267,0,55794,1
55795,,Zone Industrielle Bigos,43.6553198772501,3.94973367397967,1,,1
653,21121,Zone Industrielle Bigos,43.6553198772501,3.94973367397967,0,55795,1
671,21224,Zone Industrielle Bigos,43.6552652215598,3.94978165776776,0,55795,1
55796,,Zone Industrielle Marbrerie,43.654176263573,3.95467886776321,1,,1
654,21122,Zone Industrielle Marbrerie,43.654176263573,3.95467886776321,0,55796,1
672,21225,Zone Industrielle Marbrerie,43.6541124344425,3.95473896773407,0,55796,1
55797,,Arnel,43.5380719128249,3.86908689441648,1,,1
946,32101,Arnel,43.5380719128249,3.86908689441648,0,55797,1
972,32212,Arnel,43.5380513138934,3.86927168946488,0,55797,1
55798,,Avenue de la Gare,43.5371611208793,3.85720048593524,1,,1
955,32111,Avenue de la Gare,43.5371611208793,3.85720048593524,0,55798,1
964,32203,Avenue de la Gare,43.5370265085,3.85718455091559,0,55798,1
55799,,Boulevard des Écoles,43.5339687357134,3.86239143931779,1,,1
947,32102,Boulevard des Écoles,43.5339687357134,3.86239143931779,0,55799,1
974,32214,Boulevard des Écoles,43.5335169936917,3.86127975271466,0,55799,1
55800,,Boulevard du Chapitre,43.5333370270195,3.86447501135246,1,,1
954,32110,Boulevard du Chapitre,43.5333370270195,3.86447501135246,0,55800,1
971,32211,Boulevard du Chapitre,43.5333370270195,3.86447501135246,0,55800,1
55801,,Domenoves,43.5306881374108,3.85406325353955,1,,1
950,32105,Domenoves,43.5306881374108,3.85406325353955,0,55801,1
967,32206,Domenoves,43.5306881374108,3.85406325353955,0,55801,1
55802,,Font Majour,43.5351424012485,3.85948206482062,1,,1
957,32114,Font Majour,43.5351424012485,3.85948206482062,0,55802,1
973,32213,Font Majour,43.5348434354081,3.85964708525957,0,55802,1
55803,,Les Moures,43.5241498803238,3.86004182934098,1,,1
961,32121,Les Moures,43.5241498803238,3.86004182934098,0,55803,1
978,32221,Les Moures,43.5241498803238,3.86004182934098,0,55803,1
55804,,Les Salins,43.5306534356568,3.85844829682539,1,,1
959,32119,Les Salins,43.5306534356568,3.85844829682539,0,55804,1
976,32219,Les Salins,43.5306534356568,3.85844829682539,0,55804,1
55805,,Maison d'Arrêt,43.5463104011327,3.82829084276402,1,,1
956,32112,Maison d'Arrêt,43.5463104011327,3.82829084276402,0,55805,1
963,32202,Maison d'Arrêt,43.5463105716239,3.82827848908408,0,55805,1
55806,,Myosotis,43.528673185325,3.86500522680014,1,,1
953,32109,Myosotis,43.528673185325,3.86500522680014,0,55806,1
970,32210,Myosotis,43.528673185325,3.86500522680014,0,55806,1
55807,,Olivier de Bohême,43.5272523311226,3.86313885481008,1,,1
952,32108,Olivier de Bohême,43.5272523311226,3.86313885481008,0,55807,1
969,32209,Olivier de Bohême,43.5272523311226,3.86313885481008,0,55807,1
55808,,Pèlerine,43.5265484380905,3.8550405882026,1,,1
960,32120,Pèlerine,43.5265484380905,3.8550405882026,0,55808,1
977,32220,Pèlerine,43.5265484380905,3.8550405882026,0,55808,1
55809,,Pilou,43.5294310270757,3.86544553183772,1,,1
958,32115,Pilou,43.5294310270757,3.86544553183772,0,55809,1
975,32215,Pilou,43.5289808698395,3.86549527308879,0,55809,1
55810,,Pont de Villeneuve,43.5546250032145,3.84451388863446,1,,1
962,32201,Pont de Villeneuve,43.5546250032145,3.84451388863446,0,55810,1
55811,,Stade,43.5333687571556,3.85520928988838,1,,1
948,32103,Stade,43.5333687571556,3.85520928988838,0,55811,1
965,32204,Stade,43.5333687571556,3.85520928988838,0,55811,1
55812,,Tadornes,43.5270813243766,3.86124411805879,1,,1
951,32107,Tadornes,43.5270813243766,3.86124411805879,0,55812,1
968,32208,Tadornes,43.5270813243766,3.86124411805879,0,55812,1
55813,,Vignes Vierges,43.532273493681,3.85254856030176,1,,1
949,32104,Vignes Vierges,43.532273493681,3.85254856030176,0,55813,1
966,32205,Vignes Vierges,43.532273493681,3.85254856030176,0,55813,1
55814,,Pierre Doumergue,43.6494498333578,3.79438941358841,1,,1
1330,24126,Pierre Doumergue,43.6494498333578,3.79438941358841,0,55814,1
1331,24226,Pierre Doumergue,43.649108993813,3.79499972463498,0,55814,1
55815,,Combe Chaude,43.6528537482653,3.93476897365082,1,,1
1354,30111,Combe Chaude,43.6528537482653,3.93476897365082,0,55815,1
1358,30211,Combe Chaude,43.6528253276693,3.9348672301353,0,55815,1
55816,,Méditerranée,43.645756543208,3.93443411504556,1,,1
1352,30108,Méditerranée,43.645756543208,3.93443411504556,0,55816,1
1357,30208,Méditerranée,43.6458724521964,3.93449925919861,0,55816,1
55817,,Sauvagine,43.6623383295217,3.93659489236026,1,,1
1338,20134,Sauvagine,43.6623383295217,3.93659489236026,0,55817,1
1356,30207,Sauvagine,43.6623383295217,3.93659489236026,0,55817,1
55818,,Via Domitia,43.6472408282321,3.93071204589619,1,,1
1353,30110,Via Domitia,43.6472408282321,3.93071204589619,0,55818,1
1355,30205,Via Domitia,43.6472408282321,3.93071204589619,0,55818,1
55819,,Le Pradas,43.6608543052475,3.79198122815254,1,,1
1346,24127,Le Pradas,43.6608543052475,3.79198122815254,0,55819,1
55820,,La Lauze,43.5617620872128,3.84518422893609,1,,1
1340,20243,La Lauze,43.5617620872128,3.84518422893609,0,55820,1
55821,,Crédit Agricole,43.5588960263507,3.87631999550174,1,,1
1367,18227,Crédit Agricole,43.5588960263507,3.87631999550174,0,55821,1
1368,27113,Crédit Agricole,43.5588960263507,3.87631999550174,0,55821,1
